[
  {
    "id": 1,
    "datetime": "10/10/13 0:00",
    "city": "clifton",
    "state": "nj",
    "country": "",
    "shape": "light",
    "duration (seconds)": 60,
    "duration (hours/min)": "<1 minute",
    "comments": "Bright light&#33&#33",
    "date posted": "10/14/13",
    "latitude": 40.858433,
    "longitude": -74.163755
  },
  {
    "id": 2,
    "datetime": "10/10/13 2:32",
    "city": "palm harbor",
    "state": "fl",
    "country": "us",
    "shape": "chevron",
    "duration (seconds)": 5,
    "duration (hours/min)": "5 seconds",
    "comments": "Tracking north to south at apx 2500 ft. A very fast&#44 semi-transparent Chevron shape craft&#44 slightly larger than a commercial plane.",
    "date posted": "10/14/13",
    "latitude": 28.0777778,
    "longitude": -82.7638889
  },
  {
    "id": 3,
    "datetime": "10/10/13 5:00",
    "city": "aurburn",
    "state": "ky",
    "country": "",
    "shape": "triangle",
    "duration (seconds)": 600,
    "duration (hours/min)": "10 minutes",
    "comments": "Three bright lights over field.",
    "date posted": "10/14/13",
    "latitude": 36.864209,
    "longitude": -86.710273
  },
  {
    "id": 4,
    "datetime": "10/10/13 17:00",
    "city": "st. louis county",
    "state": "mo",
    "country": "us",
    "shape": "light",
    "duration (seconds)": 10800,
    "duration (hours/min)": "2-3 hours",
    "comments": "Hovering bright object moving slowly around St. Louis.",
    "date posted": "10/23/13",
    "latitude": 38.6272222,
    "longitude": -90.1977778
  },
  {
    "id": 5,
    "datetime": "10/10/13 17:10",
    "city": "ottawa (canada)",
    "state": "on",
    "country": "ca",
    "shape": "light",
    "duration (seconds)": 10,
    "duration (hours/min)": "10 seconds",
    "comments": "FATHER: My name is Eldon Trepanier&#44  and I assure you that the following statement is true.At approximately 5:10 pm&#44 I spotted a very b",
    "date posted": "10/14/13",
    "latitude": 45.416667,
    "longitude": -75.7
  },
  {
    "id": 6,
    "datetime": "10/10/13 19:00",
    "city": "rittman",
    "state": "oh",
    "country": "us",
    "shape": "light",
    "duration (seconds)": 60,
    "duration (hours/min)": "1 minute",
    "comments": "Fast moving white light.",
    "date posted": "10/14/13",
    "latitude": 40.9780556,
    "longitude": -81.7822222
  },
  {
    "id": 7,
    "datetime": "10/10/13 19:15",
    "city": "harvey station (canada)",
    "state": "nb",
    "country": "ca",
    "shape": "light",
    "duration (seconds)": 120,
    "duration (hours/min)": "2 minutes",
    "comments": "Slow moving bright orange light.",
    "date posted": "10/23/13",
    "latitude": 45.716667,
    "longitude": -67
  },
  {
    "id": 8,
    "datetime": "10/10/13 19:20",
    "city": "essex junction",
    "state": "vt",
    "country": "us",
    "shape": "light",
    "duration (seconds)": 120,
    "duration (hours/min)": "2 minutes",
    "comments": "Noiseless&#44 low flying&#44 white&#44 bright constant light.",
    "date posted": "10/14/13",
    "latitude": 44.4905556,
    "longitude": -73.1113889
  },
  {
    "id": 9,
    "datetime": "10/10/13 19:20",
    "city": "kenner",
    "state": "la",
    "country": "us",
    "shape": "circle",
    "duration (seconds)": 600,
    "duration (hours/min)": "10 minutes",
    "comments": "2 circle lights moving erratically over Kenner&#44 La.",
    "date posted": "10/14/13",
    "latitude": 29.9938889,
    "longitude": -90.2416667
  },
  {
    "id": 10,
    "datetime": "10/10/13 20:00",
    "city": "drexel",
    "state": "oh",
    "country": "us",
    "shape": "circle",
    "duration (seconds)": 300,
    "duration (hours/min)": "5 minutes",
    "comments": "Yellow/orange&#44 sphere/circle that flew across night sky &#44slow speeds then simply vanished &#44 had no blinking lights&#44 was not an airplane",
    "date posted": "10/14/13",
    "latitude": 39.7463889,
    "longitude": -84.2866667
  },
  {
    "id": 11,
    "datetime": "10/10/13 20:00",
    "city": "hudson",
    "state": "nh",
    "country": "us",
    "shape": "light",
    "duration (seconds)": 5,
    "duration (hours/min)": "5 seconds",
    "comments": "White&#44 orb above the clouds moving very fast&#44 no flashing lights&#44 zoomed across the sky and disappeared out of sight.",
    "date posted": "10/14/13",
    "latitude": 42.7647222,
    "longitude": -71.4402778
  },
  {
    "id": 12,
    "datetime": "10/10/13 20:30",
    "city": "grand blanc",
    "state": "mi",
    "country": "us",
    "shape": "light",
    "duration (seconds)": 1200,
    "duration (hours/min)": "20 minutes",
    "comments": "3 bright lights holding a vertical position over central Michigan&#44 USA.",
    "date posted": "10/14/13",
    "latitude": 42.9275,
    "longitude": -83.63
  },
  {
    "id": 13,
    "datetime": "10/10/13 20:30",
    "city": "savage",
    "state": "mn",
    "country": "us",
    "shape": "circle",
    "duration (seconds)": 60,
    "duration (hours/min)": "1 minute",
    "comments": "I saw a sphere shaped object flying east to west moving faster than any conventional aircraft was white to orange in color as it reache",
    "date posted": "10/14/13",
    "latitude": 44.7791667,
    "longitude": -93.3361111
  },
  {
    "id": 14,
    "datetime": "10/10/13 20:32",
    "city": "warren",
    "state": "mi",
    "country": "us",
    "shape": "sphere",
    "duration (seconds)": 45,
    "duration (hours/min)": "45 seconds",
    "comments": "Three glowing reddish-orange spheres changing to white lights",
    "date posted": "10/14/13",
    "latitude": 42.4775,
    "longitude": -83.0277778
  },
  {
    "id": 15,
    "datetime": "10/10/13 20:35",
    "city": "canton",
    "state": "mi",
    "country": "us",
    "shape": "triangle",
    "duration (seconds)": 180,
    "duration (hours/min)": "3 minutes",
    "comments": "Black triangle aircraft with white lights on each point&#44 completely silent&#44 seen flying low SW to NE.",
    "date posted": "10/14/13",
    "latitude": 42.3086111,
    "longitude": -83.4822222
  },
  {
    "id": 16,
    "datetime": "10/10/13 21:17",
    "city": "lost creek",
    "state": "wv",
    "country": "us",
    "shape": "triangle",
    "duration (seconds)": 45,
    "duration (hours/min)": "45 seconds",
    "comments": "Small triangle with 3 lights floating low over a field then slowly flying away.",
    "date posted": "10/14/13",
    "latitude": 39.1611111,
    "longitude": -80.3522222
  },
  {
    "id": 17,
    "datetime": "10/10/13 21:30",
    "city": "hudson",
    "state": "nh",
    "country": "us",
    "shape": "light",
    "duration (seconds)": 1,
    "duration (hours/min)": "1 second",
    "comments": "Very white bright light moving fast inside clouds.",
    "date posted": "10/14/13",
    "latitude": 42.7647222,
    "longitude": -71.4402778
  },
  {
    "id": 18,
    "datetime": "10/11/13 1:00",
    "city": "saginaw",
    "state": "mi",
    "country": "us",
    "shape": "chevron",
    "duration (seconds)": 4,
    "duration (hours/min)": "4 seconds",
    "comments": "10 or so dimly lit white lights in a large arrow shape formation moving at high rate of speed.",
    "date posted": "10/14/13",
    "latitude": 43.4194444,
    "longitude": -83.9508333
  },
  {
    "id": 19,
    "datetime": "10/11/13 3:00",
    "city": "hamilton (canada)",
    "state": "on",
    "country": "ca",
    "shape": "cylinder",
    "duration (seconds)": 3600,
    "duration (hours/min)": "0300:0400",
    "comments": "Enlarged still frame pics of the video show strage shapes and strange colors.",
    "date posted": "10/23/13",
    "latitude": 43.25,
    "longitude": -79.833333
  },
  {
    "id": 20,
    "datetime": "10/11/13 6:13",
    "city": "ankeny",
    "state": "ia",
    "country": "us",
    "shape": "circle",
    "duration (seconds)": 120,
    "duration (hours/min)": "2 minutes",
    "comments": "Two slow moving star-like objects suddenly accelerated to light speed heading towards Jupiter",
    "date posted": "10/14/13",
    "latitude": 41.7297222,
    "longitude": -93.6055556
  },
  {
    "id": 21,
    "datetime": "10/11/13 9:05",
    "city": "palm beach gardens",
    "state": "fl",
    "country": "us",
    "shape": "light",
    "duration (seconds)": 15,
    "duration (hours/min)": "10-15 seconds",
    "comments": "Five orange flying objects in the nights sky and no sound.",
    "date posted": "10/14/13",
    "latitude": 26.8230556,
    "longitude": -80.1388889
  },
  {
    "id": 22,
    "datetime": "10/11/13 16:01",
    "city": "pickering (canada)",
    "state": "on",
    "country": "ca",
    "shape": "circle",
    "duration (seconds)": 300,
    "duration (hours/min)": "5 minutes",
    "comments": "Glowing blue sphere in Ontario&#44 Canada.",
    "date posted": "1/30/14",
    "latitude": 43.866667,
    "longitude": -79.033333
  },
  {
    "id": 23,
    "datetime": "10/11/13 16:35",
    "city": "kalamazoo",
    "state": "mi",
    "country": "us",
    "shape": "fireball",
    "duration (seconds)": 600,
    "duration (hours/min)": "~10 minutes",
    "comments": "Massive caravan of a hundred red/orange fireballs moving from west to east at a steady rate in formation for at least ten minutes.",
    "date posted": "10/14/13",
    "latitude": 42.2916667,
    "longitude": -85.5872222
  },
  {
    "id": 24,
    "datetime": "10/11/13 19:00",
    "city": "lawrence",
    "state": "ks",
    "country": "us",
    "shape": "unknown",
    "duration (seconds)": 240,
    "duration (hours/min)": "2-4 minutes",
    "comments": "Silent blue and white lights of craft object change color&#44 approach myself and boyfriend&#44 before changing into buzzing&#44 everyday plane",
    "date posted": "10/14/13",
    "latitude": 38.9716667,
    "longitude": -95.235
  },
  {
    "id": 25,
    "datetime": "10/11/13 19:20",
    "city": "north cincinnati",
    "state": "oh",
    "country": "",
    "shape": "fireball",
    "duration (seconds)": 600,
    "duration (hours/min)": "10 minutes",
    "comments": "Some sort of fireball came down from the sky very rapidly soon to turn into 3 flying disc that where lit up (clearly not stars) they se",
    "date posted": "10/14/13",
    "latitude": 39.103118,
    "longitude": -84.51202
  },
  {
    "id": 26,
    "datetime": "10/11/13 19:50",
    "city": "essex junction",
    "state": "vt",
    "country": "us",
    "shape": "light",
    "duration (seconds)": 60,
    "duration (hours/min)": "60 seconds",
    "comments": "4 or 5 Orange Lights in Vermont Sky",
    "date posted": "10/14/13",
    "latitude": 44.4905556,
    "longitude": -73.1113889
  },
  {
    "id": 27,
    "datetime": "10/11/13 20:00",
    "city": "cincinnati",
    "state": "oh",
    "country": "us",
    "shape": "circle",
    "duration (seconds)": 300,
    "duration (hours/min)": "4-5 minutes",
    "comments": "Glowing Orange Fireball/Lights Seen at Turpin HS Football Game.",
    "date posted": "2/21/14",
    "latitude": 39.1619444,
    "longitude": -84.4569444
  },
  {
    "id": 28,
    "datetime": "10/11/13 20:00",
    "city": "cincinnati",
    "state": "oh",
    "country": "us",
    "shape": "fireball",
    "duration (seconds)": 240,
    "duration (hours/min)": "4 minutes",
    "comments": "Cincinnati fire ball in the sky?",
    "date posted": "10/14/13",
    "latitude": 39.1619444,
    "longitude": -84.4569444
  },
  {
    "id": 29,
    "datetime": "10/11/13 20:00",
    "city": "naples",
    "state": "fl",
    "country": "us",
    "shape": "light",
    "duration (seconds)": 7200,
    "duration (hours/min)": "few hours",
    "comments": "Circle of Different color flashing light over gulf in naples",
    "date posted": "10/14/13",
    "latitude": 26.1416667,
    "longitude": -81.795
  },
  {
    "id": 30,
    "datetime": "10/11/13 20:15",
    "city": "bonaie",
    "state": "ga",
    "country": "",
    "shape": "light",
    "duration (seconds)": 300,
    "duration (hours/min)": "3-5 minutes",
    "comments": "15-25 red/orange lights moving at a low altitude in the same pattern with no sound at all.",
    "date posted": "10/14/13",
    "latitude": 32.543889,
    "longitude": -83.596111
  },
  {
    "id": 31,
    "datetime": "10/11/13 20:15",
    "city": "cincinnati",
    "state": "oh",
    "country": "us",
    "shape": "fireball",
    "duration (seconds)": 60,
    "duration (hours/min)": "1 minute",
    "comments": "3 fireball type objects close to downtown Cincinnati.",
    "date posted": "10/14/13",
    "latitude": 39.1619444,
    "longitude": -84.4569444
  },
  {
    "id": 32,
    "datetime": "10/11/13 20:15",
    "city": "union",
    "state": "ky",
    "country": "us",
    "shape": "fireball",
    "duration (seconds)": 300,
    "duration (hours/min)": "5 minutes",
    "comments": "amber fireball descending&#44splits into 3 objects&#44stops&#44they hover above ground with erratic movements",
    "date posted": "10/23/13",
    "latitude": 38.9458333,
    "longitude": -84.6805556
  },
  {
    "id": 33,
    "datetime": "10/11/13 20:20",
    "city": "hubbardston",
    "state": "ma",
    "country": "us",
    "shape": "fireball",
    "duration (seconds)": 60,
    "duration (hours/min)": "1 minute",
    "comments": "4 orange orbs zig zgging across the sky.  Quick movements forward and aft and side to side.",
    "date posted": "10/14/13",
    "latitude": 42.4736111,
    "longitude": -72.0066667
  },
  {
    "id": 34,
    "datetime": "10/11/13 20:45",
    "city": "covington",
    "state": "ga",
    "country": "us",
    "shape": "light",
    "duration (seconds)": 300,
    "duration (hours/min)": "5 minutes",
    "comments": "Saw a bunch of low-altitude lights drifting overhead.",
    "date posted": "10/14/13",
    "latitude": 33.5966667,
    "longitude": -83.8602778
  },
  {
    "id": 35,
    "datetime": "10/11/13 21:00",
    "city": "drexel",
    "state": "oh",
    "country": "us",
    "shape": "sphere",
    "duration (seconds)": 180,
    "duration (hours/min)": "3 minutes",
    "comments": "Blue white streak in sky&#44 2 orange orbs splitting. seems like it landed.",
    "date posted": "10/14/13",
    "latitude": 39.7463889,
    "longitude": -84.2866667
  },
  {
    "id": 36,
    "datetime": "10/11/13 21:00",
    "city": "fayetteville",
    "state": "ny",
    "country": "us",
    "shape": "chevron",
    "duration (seconds)": 90,
    "duration (hours/min)": "90 seconds",
    "comments": "Brilliant slow moving light in fayetteville ny.",
    "date posted": "10/14/13",
    "latitude": 43.0297222,
    "longitude": -76.0047222
  },
  {
    "id": 37,
    "datetime": "10/11/13 22:00",
    "city": "jupiter",
    "state": "fl",
    "country": "us",
    "shape": "light",
    "duration (seconds)": 900,
    "duration (hours/min)": "15 minutes",
    "comments": "Groups of glowing orange objects moving randomly from east to west over Jupiter Inlet area at approximately 10:00 pm Oct 11&#44 2013.",
    "date posted": "10/14/13",
    "latitude": 26.9338889,
    "longitude": -80.0944444
  },
  {
    "id": 38,
    "datetime": "10/11/13 22:00",
    "city": "melbourne",
    "state": "fl",
    "country": "us",
    "shape": "sphere",
    "duration (seconds)": 300,
    "duration (hours/min)": "5 minutes",
    "comments": "At or around 22:00 hours my Mother called me outside to look at something My Father and I walked out the front door and observed a larg",
    "date posted": "10/14/13",
    "latitude": 28.0833333,
    "longitude": -80.6083333
  },
  {
    "id": 39,
    "datetime": "10/11/13 22:08",
    "city": "dresser",
    "state": "wi",
    "country": "us",
    "shape": "sphere",
    "duration (seconds)": 60,
    "duration (hours/min)": "1 minutes",
    "comments": "Large Orange Sphere over Polk county Wisconsin.",
    "date posted": "10/14/13",
    "latitude": 45.3561111,
    "longitude": -92.6333333
  },
  {
    "id": 40,
    "datetime": "10/11/13 22:10",
    "city": "lombard",
    "state": "il",
    "country": "us",
    "shape": "formation",
    "duration (seconds)": 60,
    "duration (hours/min)": "1 minute",
    "comments": "5-8 orange lights over suburban Chicago",
    "date posted": "10/14/13",
    "latitude": 41.88,
    "longitude": -88.0077778
  },
  {
    "id": 41,
    "datetime": "10/11/13 22:18",
    "city": "windsor (canada)",
    "state": "on",
    "country": "ca",
    "shape": "light",
    "duration (seconds)": 300,
    "duration (hours/min)": "3-5 minutes",
    "comments": "5 orange lights seen in sky over windsor.",
    "date posted": "10/14/13",
    "latitude": 45.583333,
    "longitude": -72
  },
  {
    "id": 42,
    "datetime": "10/11/13 23:00",
    "city": "north canton",
    "state": "oh",
    "country": "us",
    "shape": "fireball",
    "duration (seconds)": 10,
    "duration (hours/min)": "10 seconds",
    "comments": "Fireball over the Strip.",
    "date posted": "10/14/13",
    "latitude": 40.8758333,
    "longitude": -81.4025
  },
  {
    "id": 43,
    "datetime": "10/11/13 23:15",
    "city": "pinckney",
    "state": "mi",
    "country": "us",
    "shape": "fireball",
    "duration (seconds)": 2,
    "duration (hours/min)": "2 seconds",
    "comments": "Large orange fireball observed over Hell&#44 Michigan&#44 traveling from due south to due north directly overhead.",
    "date posted": "10/14/13",
    "latitude": 42.4566667,
    "longitude": -83.9463889
  },
  {
    "id": 44,
    "datetime": "10/1/13 3:00",
    "city": "colorado springs",
    "state": "co",
    "country": "us",
    "shape": "triangle",
    "duration (seconds)": 5400,
    "duration (hours/min)": "90 minutes",
    "comments": "Red&#44 blue&#44 white and green high in sky; didn&#39t move.",
    "date posted": "10/3/13",
    "latitude": 38.8338889,
    "longitude": -104.8208333
  },
  {
    "id": 45,
    "datetime": "10/1/13 6:35",
    "city": "bel air",
    "state": "md",
    "country": "us",
    "shape": "flash",
    "duration (seconds)": 4,
    "duration (hours/min)": "2-4 seconds",
    "comments": "Flashing ball that goes out and continues as a black dot at slower speed then a meteor.",
    "date posted": "10/3/13",
    "latitude": 39.5358333,
    "longitude": -76.3486111
  },
  {
    "id": 46,
    "datetime": "10/1/13 7:40",
    "city": "bakersfield",
    "state": "ca",
    "country": "us",
    "shape": "circle",
    "duration (seconds)": 30,
    "duration (hours/min)": "30 seconds",
    "comments": "There was a metal looking star hovering several miles s/w of Bakersfield&#44 Ca. my friend&#44 girlfriend&#44 and i were driving to the park an",
    "date posted": "10/3/13",
    "latitude": 35.3733333,
    "longitude": -119.0177778
  },
  {
    "id": 47,
    "datetime": "10/1/13 8:38",
    "city": "furlong",
    "state": "nj",
    "country": "",
    "shape": "other",
    "duration (seconds)": 120,
    "duration (hours/min)": "1-2 minutes",
    "comments": "Shape with lights hovering then inching then speeding in a direction.",
    "date posted": "10/3/13",
    "latitude": 40.296218,
    "longitude": -75.082115
  },
  {
    "id": 48,
    "datetime": "10/1/13 9:00",
    "city": "boulder/niwot",
    "state": "co",
    "country": "",
    "shape": "disk",
    "duration (seconds)": 300,
    "duration (hours/min)": "5 minutes",
    "comments": "Metallic object floating above Boulder.",
    "date posted": "10/3/13",
    "latitude": 40.103874,
    "longitude": -105.170819
  },
  {
    "id": 49,
    "datetime": "10/1/13 9:42",
    "city": "cobb mountain",
    "state": "ca",
    "country": "",
    "shape": "fireball",
    "duration (seconds)": 1500,
    "duration (hours/min)": "25 minutes",
    "comments": "Bright round orange/red fireball.",
    "date posted": "10/3/13",
    "latitude": 38.807404,
    "longitude": -122.740546
  },
  {
    "id": 50,
    "datetime": "10/1/13 9:43",
    "city": "muncie",
    "state": "in",
    "country": "us",
    "shape": "triangle",
    "duration (seconds)": 7200,
    "duration (hours/min)": "2 hours",
    "comments": "Bright Triangular Light Orb in the sky different flashing lights and appears closer each day.",
    "date posted": "10/3/13",
    "latitude": 40.1933333,
    "longitude": -85.3863889
  },
  {
    "id": 51,
    "datetime": "10/1/13 12:30",
    "city": "pittsburgh",
    "state": "pa",
    "country": "us",
    "shape": "unknown",
    "duration (seconds)": 60,
    "duration (hours/min)": "1 minute",
    "comments": "Driving across the Glenfied Bridge&#44 northbound&#44 saw an odd shape as i was looking southeast down the Ohio. It wasn&#39t a plane. It wa",
    "date posted": "10/14/13",
    "latitude": 40.4405556,
    "longitude": -79.9961111
  },
  {
    "id": 52,
    "datetime": "10/1/13 12:30",
    "city": "pittsburgh",
    "state": "pa",
    "country": "us",
    "shape": "unknown",
    "duration (seconds)": 60,
    "duration (hours/min)": "<i minute",
    "comments": "I&#39m conflicted. I had another sighting&#44 and I was challenged by you of filing a false report.  ((NUFORC Note:  See comment below.  PD)",
    "date posted": "10/14/13",
    "latitude": 40.4405556,
    "longitude": -79.9961111
  },
  {
    "id": 53,
    "datetime": "10/1/13 12:40",
    "city": "lincoln",
    "state": "ri",
    "country": "",
    "shape": "light",
    "duration (seconds)": 4,
    "duration (hours/min)": "4 seconds",
    "comments": "Two white dots crossing paths around Lincoln and Providence RI.",
    "date posted": "10/3/13",
    "latitude": 41.921111,
    "longitude": -71.435
  },
  {
    "id": 54,
    "datetime": "10/1/13 18:30",
    "city": "boulder",
    "state": "co",
    "country": "us",
    "shape": "light",
    "duration (seconds)": 240,
    "duration (hours/min)": "3-4 minutes",
    "comments": "Three long white crescent shaped moving lights moving in a half circle.",
    "date posted": "10/3/13",
    "latitude": 40.015,
    "longitude": -105.27
  },
  {
    "id": 55,
    "datetime": "10/1/13 19:15",
    "city": "thibodaux",
    "state": "la",
    "country": "us",
    "shape": "unknown",
    "duration (seconds)": 300,
    "duration (hours/min)": "5 minutes",
    "comments": "Very bright white lights 4 all together moving from southeast to west flying low no noise.",
    "date posted": "10/3/13",
    "latitude": 29.7955556,
    "longitude": -90.8227778
  },
  {
    "id": 56,
    "datetime": "10/1/13 19:20",
    "city": "webster",
    "state": "ny",
    "country": "us",
    "shape": "sphere",
    "duration (seconds)": 1800,
    "duration (hours/min)": "30 minutes",
    "comments": "Yellow/Orangish Balls streaking across the sky&#44 no sound from them at all&#44 and no tail.",
    "date posted": "10/3/13",
    "latitude": 43.2122222,
    "longitude": -77.4302778
  },
  {
    "id": 57,
    "datetime": "10/1/13 19:25",
    "city": "southwest ranches",
    "state": "fl",
    "country": "us",
    "shape": "light",
    "duration (seconds)": 300,
    "duration (hours/min)": "5 minutes",
    "comments": "Brilliant white light in SW Sky stationary over 7 minutes then vanishes.  Not an airplane&#33",
    "date posted": "10/3/13",
    "latitude": 26.0583333,
    "longitude": -80.3375
  },
  {
    "id": 58,
    "datetime": "10/1/13 20:00",
    "city": "tampa",
    "state": "fl",
    "country": "us",
    "shape": "light",
    "duration (seconds)": 3600,
    "duration (hours/min)": "45-60 minutes",
    "comments": "Intensely bright light sphere high up in the sky over the Gulf of Mexico.",
    "date posted": "10/3/13",
    "latitude": 27.9472222,
    "longitude": -82.4586111
  },
  {
    "id": 59,
    "datetime": "10/1/13 21:30",
    "city": "cumming",
    "state": "ga",
    "country": "us",
    "shape": "fireball",
    "duration (seconds)": 1200,
    "duration (hours/min)": "20 minutes",
    "comments": "3 very slow-moving sparking&#44 flaming meteor looking objects starting on 1 side of the horizon and ended in the same spot on the other.",
    "date posted": "10/3/13",
    "latitude": 34.2072222,
    "longitude": -84.1402778
  },
  {
    "id": 60,
    "datetime": "10/1/13 21:40",
    "city": "sneedville",
    "state": "tn",
    "country": "us",
    "shape": "circle",
    "duration (seconds)": 90,
    "duration (hours/min)": "1-1.5 minutes",
    "comments": "Large round bright white light moved away and upward for 1-1.5 min before completely disappearing.",
    "date posted": "10/3/13",
    "latitude": 36.5297222,
    "longitude": -83.2175
  },
  {
    "id": 61,
    "datetime": "10/1/13 22:10",
    "city": "white lake",
    "state": "mi",
    "country": "us",
    "shape": "unknown",
    "duration (seconds)": 900,
    "duration (hours/min)": "15 minutes",
    "comments": "Two seperate objects far off&#44 with a white light that turned off an on every four or five minutes then disappeared.",
    "date posted": "10/3/13",
    "latitude": 42.6916667,
    "longitude": -83.5541667
  },
  {
    "id": 62,
    "datetime": "10/1/13 22:30",
    "city": "waterloo",
    "state": "ia",
    "country": "us",
    "shape": "triangle",
    "duration (seconds)": 60,
    "duration (hours/min)": "1 minute",
    "comments": "My girlfriend and I witnessed a bright orange triangular light in the sky.",
    "date posted": "10/3/13",
    "latitude": 42.4927778,
    "longitude": -92.3427778
  },
  {
    "id": 63,
    "datetime": "10/1/13 22:45",
    "city": "middle island (long island)",
    "state": "ny",
    "country": "us",
    "shape": "fireball",
    "duration (seconds)": 1200,
    "duration (hours/min)": "20 minutes",
    "comments": "Orange Glowing Lights over East Long Island.",
    "date posted": "10/14/13",
    "latitude": 40.8841667,
    "longitude": -72.9377778
  },
  {
    "id": 64,
    "datetime": "10/1/13 23:00",
    "city": "london (uk/england)",
    "state": "",
    "country": "gb",
    "shape": "fireball",
    "duration (seconds)": 30,
    "duration (hours/min)": "30 seconds",
    "comments": "Orange fireball seen hovering in London sky before vanishing.",
    "date posted": "10/3/13",
    "latitude": 51.514125,
    "longitude": -0.093689
  },
  {
    "id": 65,
    "datetime": "10/1/13 23:30",
    "city": "arlington",
    "state": "wi",
    "country": "us",
    "shape": "unknown",
    "duration (seconds)": 600,
    "duration (hours/min)": "10 minutes",
    "comments": "Strange Green/Purple and Orange Dancing Lights Above Farm Field.",
    "date posted": "10/3/13",
    "latitude": 43.3380556,
    "longitude": -89.3802778
  },
  {
    "id": 66,
    "datetime": "10/12/13 3:08",
    "city": "austin",
    "state": "tx",
    "country": "us",
    "shape": "unknown",
    "duration (seconds)": 17,
    "duration (hours/min)": "recorded 17 seconds",
    "comments": "Gold hazy &quot;being&quot; hovering (like standing on edge of craft) while over apt building in NW Austin - amber lights on edges.",
    "date posted": "10/23/13",
    "latitude": 30.2669444,
    "longitude": -97.7427778
  },
  {
    "id": 67,
    "datetime": "10/12/13 4:30",
    "city": "cambridge",
    "state": "ny",
    "country": "us",
    "shape": "light",
    "duration (seconds)": 7200,
    "duration (hours/min)": "2 hours",
    "comments": "Flickering light moved in almost a hummingbird type fashion",
    "date posted": "10/14/13",
    "latitude": 43.0280556,
    "longitude": -73.3816667
  },
  {
    "id": 68,
    "datetime": "10/12/13 7:17",
    "city": "strongsville",
    "state": "oh",
    "country": "us",
    "shape": "triangle",
    "duration (seconds)": 300,
    "duration (hours/min)": "5 minutes",
    "comments": "Three bright lights in triangle formation over Strongsville/Brunswick area. Moved together almost as if one craft.",
    "date posted": "10/14/13",
    "latitude": 41.3144444,
    "longitude": -81.8358333
  },
  {
    "id": 69,
    "datetime": "10/12/13 7:45",
    "city": "festus",
    "state": "mo",
    "country": "us",
    "shape": "fireball",
    "duration (seconds)": 60,
    "duration (hours/min)": "1 minute",
    "comments": "2 large orange lights hovering near each other. Moving up and down&#44 side to side. Zoomed &amp; disappeared&#44 seemingly realizing us noticing",
    "date posted": "10/14/13",
    "latitude": 38.2205556,
    "longitude": -90.3958333
  },
  {
    "id": 70,
    "datetime": "10/12/13 13:00",
    "city": "owego",
    "state": "ny",
    "country": "us",
    "shape": "disk",
    "duration (seconds)": 120,
    "duration (hours/min)": "2 minutes",
    "comments": "2 Flying discs over Owego&#44 New York&#44 USA.",
    "date posted": "10/14/13",
    "latitude": 42.1033333,
    "longitude": -76.2625
  },
  {
    "id": 71,
    "datetime": "10/12/13 14:35",
    "city": "kodiak",
    "state": "ak",
    "country": "us",
    "shape": "other",
    "duration (seconds)": 300,
    "duration (hours/min)": "5 minutes",
    "comments": "Huge and change of vector into sky.",
    "date posted": "10/14/13",
    "latitude": 57.79,
    "longitude": -152.4072222
  },
  {
    "id": 72,
    "datetime": "10/12/13 15:00",
    "city": "st. louis",
    "state": "mo",
    "country": "us",
    "shape": "formation",
    "duration (seconds)": 900,
    "duration (hours/min)": "15+ minutes",
    "comments": "Cluster of silver orbs fading in and out of view.",
    "date posted": "10/23/13",
    "latitude": 38.6272222,
    "longitude": -90.1977778
  },
  {
    "id": 73,
    "datetime": "10/12/13 18:30",
    "city": "clarkston",
    "state": "mi",
    "country": "us",
    "shape": "triangle",
    "duration (seconds)": 1800,
    "duration (hours/min)": "30 minutes",
    "comments": "Triangular object with 2 small round objects in clouds in daylight&#441 of the objects took off at increadable speed.",
    "date posted": "10/14/13",
    "latitude": 42.7358333,
    "longitude": -83.4188889
  },
  {
    "id": 74,
    "datetime": "10/12/13 19:45",
    "city": "columbus",
    "state": "oh",
    "country": "us",
    "shape": "changing",
    "duration (seconds)": 180,
    "duration (hours/min)": "2.5-3 minutes",
    "comments": "Shape shifting Light Orbs.",
    "date posted": "11/11/13",
    "latitude": 39.9611111,
    "longitude": -82.9988889
  },
  {
    "id": 75,
    "datetime": "10/12/13 20:00",
    "city": "finleyville",
    "state": "pa",
    "country": "us",
    "shape": "other",
    "duration (seconds)": 120,
    "duration (hours/min)": "2 minutes",
    "comments": "Four orange globes",
    "date posted": "10/14/13",
    "latitude": 40.2522222,
    "longitude": -80.0030556
  },
  {
    "id": 76,
    "datetime": "10/12/13 20:00",
    "city": "lima",
    "state": "oh",
    "country": "us",
    "shape": "formation",
    "duration (seconds)": 600,
    "duration (hours/min)": "10 minutes",
    "comments": "Husband and I witnessed 4 translucent lights moving clockwise then coming together in center and then spreading back out. I have seen t",
    "date posted": "10/14/13",
    "latitude": 40.7425,
    "longitude": -84.1052778
  },
  {
    "id": 77,
    "datetime": "10/12/13 20:00",
    "city": "north judson",
    "state": "in",
    "country": "us",
    "shape": "light",
    "duration (seconds)": 30,
    "duration (hours/min)": "30 seconds",
    "comments": "3 to 4 bright glowing oarnge balls in a straight line&#44 then made fast movements in a straight line",
    "date posted": "10/14/13",
    "latitude": 41.215,
    "longitude": -86.7758333
  },
  {
    "id": 78,
    "datetime": "10/12/13 20:00",
    "city": "suffolk",
    "state": "va",
    "country": "us",
    "shape": "triangle",
    "duration (seconds)": 900,
    "duration (hours/min)": "15 minutes",
    "comments": "9 sets of 3 triangular aircraft.",
    "date posted": "10/14/13",
    "latitude": 36.7280556,
    "longitude": -76.5838889
  },
  {
    "id": 79,
    "datetime": "10/12/13 20:20",
    "city": "morganton",
    "state": "nc",
    "country": "us",
    "shape": "light",
    "duration (seconds)": 300,
    "duration (hours/min)": "5 minutes",
    "comments": "Red/orange lights.",
    "date posted": "11/11/13",
    "latitude": 35.7452778,
    "longitude": -81.685
  },
  {
    "id": 80,
    "datetime": "10/12/13 20:28",
    "city": "keswick (canada)",
    "state": "on",
    "country": "ca",
    "shape": "sphere",
    "duration (seconds)": 120,
    "duration (hours/min)": "2 minutes",
    "comments": "Fuzzy orange sphere in night sky moving quickly south to north no nav lights visible",
    "date posted": "10/14/13",
    "latitude": 44.25,
    "longitude": -79.466667
  },
  {
    "id": 81,
    "datetime": "10/12/13 20:40",
    "city": "hamilton",
    "state": "oh",
    "country": "us",
    "shape": "formation",
    "duration (seconds)": 1200,
    "duration (hours/min)": "20 minutes",
    "comments": "Bright light splits into 4 and forms shapes&#44 disappears one at a time&#44 above Hamilton Ohio",
    "date posted": "10/14/13",
    "latitude": 39.3994444,
    "longitude": -84.5613889
  },
  {
    "id": 82,
    "datetime": "10/12/13 20:55",
    "city": "austin",
    "state": "tx",
    "country": "us",
    "shape": "triangle",
    "duration (seconds)": 60,
    "duration (hours/min)": "1 minute",
    "comments": "UFO lights over Austin&#44 Texas ACL Fest During the Cure Concert.",
    "date posted": "10/14/13",
    "latitude": 30.2669444,
    "longitude": -97.7427778
  },
  {
    "id": 83,
    "datetime": "10/12/13 21:00",
    "city": "franklin",
    "state": "oh",
    "country": "us",
    "shape": "light",
    "duration (seconds)": 600,
    "duration (hours/min)": "10 minutes",
    "comments": "Bright white lights one then three then four appeared then all diappeared then reappeared.",
    "date posted": "10/14/13",
    "latitude": 39.5588889,
    "longitude": -84.3041667
  },
  {
    "id": 84,
    "datetime": "10/12/13 21:00",
    "city": "hamilton",
    "state": "oh",
    "country": "us",
    "shape": "fireball",
    "duration (seconds)": 120,
    "duration (hours/min)": "1-2 minutes",
    "comments": "Large orange fireball splits into four fireballs.",
    "date posted": "10/23/13",
    "latitude": 39.3994444,
    "longitude": -84.5613889
  },
  {
    "id": 85,
    "datetime": "10/12/13 21:00",
    "city": "koh samui (thailand)",
    "state": "",
    "country": "",
    "shape": "circle",
    "duration (seconds)": 45,
    "duration (hours/min)": "45 seconds",
    "comments": "Bright orange sphere in nighttime sky in Thailand.",
    "date posted": "10/14/13",
    "latitude": 9.512017,
    "longitude": 100.013593
  },
  {
    "id": 86,
    "datetime": "10/12/13 21:00",
    "city": "springboro",
    "state": "oh",
    "country": "us",
    "shape": "unknown",
    "duration (seconds)": 60,
    "duration (hours/min)": "<1 minute",
    "comments": "Glowing orbs flickering and changing configuration.",
    "date posted": "10/14/13",
    "latitude": 39.5522222,
    "longitude": -84.2333333
  },
  {
    "id": 87,
    "datetime": "10/12/13 21:00",
    "city": "west chester",
    "state": "oh",
    "country": "us",
    "shape": "light",
    "duration (seconds)": 60,
    "duration (hours/min)": "~1 minute",
    "comments": "One yellow light that split into four the reunited over Butler County Ohio.",
    "date posted": "10/23/13",
    "latitude": 39.0875,
    "longitude": -81.9227778
  },
  {
    "id": 88,
    "datetime": "10/12/13 21:15",
    "city": "miamisburg",
    "state": "oh",
    "country": "us",
    "shape": "fireball",
    "duration (seconds)": 600,
    "duration (hours/min)": "10 minutes",
    "comments": "Started as a fireball that separated into three hovering objects",
    "date posted": "10/14/13",
    "latitude": 39.6427778,
    "longitude": -84.2866667
  },
  {
    "id": 89,
    "datetime": "10/12/13 21:15",
    "city": "peoria",
    "state": "il",
    "country": "us",
    "shape": "formation",
    "duration (seconds)": 180,
    "duration (hours/min)": "3 minutes",
    "comments": "Several stationary orange lights in sky west of Peoria&#44 in a descending arc which dissappeared in twos after a short period of time.",
    "date posted": "10/14/13",
    "latitude": 40.6936111,
    "longitude": -89.5888889
  },
  {
    "id": 90,
    "datetime": "10/12/13 21:45",
    "city": "springboro",
    "state": "oh",
    "country": "us",
    "shape": "unknown",
    "duration (seconds)": 30,
    "duration (hours/min)": "30 seconds",
    "comments": "High altitude orb of ligh breaks into four&#44 which move around laterally&#44 join back together and disappear.",
    "date posted": "10/23/13",
    "latitude": 39.5522222,
    "longitude": -84.2333333
  },
  {
    "id": 91,
    "datetime": "10/12/13 22:00",
    "city": "aspen (~2 hrs. w of; driving)",
    "state": "co",
    "country": "us",
    "shape": "formation",
    "duration (seconds)": 30,
    "duration (hours/min)": "15-30 seconds",
    "comments": "3 orbs in sky remote Colorado oct 12 2013  moving in up and down to side to side plus sign formations .",
    "date posted": "12/23/13",
    "latitude": 39.1911111,
    "longitude": -106.8169444
  },
  {
    "id": 92,
    "datetime": "10/12/13 22:00",
    "city": "grand junction (east of; on i-70)",
    "state": "co",
    "country": "us",
    "shape": "light",
    "duration (seconds)": 15,
    "duration (hours/min)": "15 seconds",
    "comments": "Oct 12&#44 2013&#44 I saw 3  orbs in sky  east of grand junction on I/70  moving in fasted up and down side to side  formations. .",
    "date posted": "12/23/13",
    "latitude": 39.0638889,
    "longitude": -108.55
  },
  {
    "id": 93,
    "datetime": "10/12/13 22:00",
    "city": "sundridge (canada)",
    "state": "on",
    "country": "ca",
    "shape": "sphere",
    "duration (seconds)": 15,
    "duration (hours/min)": "several hours",
    "comments": "Multi colored Lights that moved in all random directons.  ((NUFORC Note:  We suspect &quot;twinkling&quot; stars.  PD))",
    "date posted": "10/14/13",
    "latitude": 45.766667,
    "longitude": -79.4
  },
  {
    "id": 94,
    "datetime": "10/12/13 22:05",
    "city": "chandlerville",
    "state": "oh",
    "country": "",
    "shape": "diamond",
    "duration (seconds)": 2400,
    "duration (hours/min)": ">20-40 minutes",
    "comments": "Northeastern view of red and green shaped diamond changing flight pattern for the past 25 mins",
    "date posted": "10/14/13",
    "latitude": 39.898404,
    "longitude": -81.827354
  },
  {
    "id": 95,
    "datetime": "10/12/13 22:05",
    "city": "hilliard",
    "state": "oh",
    "country": "us",
    "shape": "diamond",
    "duration (seconds)": 180,
    "duration (hours/min)": "3 minutes",
    "comments": "Diamond\\Top UFO with all red panels.",
    "date posted": "10/14/13",
    "latitude": 40.0333333,
    "longitude": -83.1583333
  },
  {
    "id": 96,
    "datetime": "10/12/13 22:26",
    "city": "hiawassee",
    "state": "ga",
    "country": "us",
    "shape": "circle",
    "duration (seconds)": 900,
    "duration (hours/min)": "15 minutes",
    "comments": "We just witnessed an amazing event.  About ten different hovering light facing 20&#39 north east of Hiawassee.  They were orange like and",
    "date posted": "10/14/13",
    "latitude": 34.9491667,
    "longitude": -83.7575
  },
  {
    "id": 97,
    "datetime": "10/12/13 22:30",
    "city": "lombard",
    "state": "il",
    "country": "us",
    "shape": "other",
    "duration (seconds)": 120,
    "duration (hours/min)": "2 minutes",
    "comments": "Two thin&#44 pinkish glowing rings drifting through the air.",
    "date posted": "10/14/13",
    "latitude": 41.88,
    "longitude": -88.0077778
  },
  {
    "id": 98,
    "datetime": "10/12/13 22:30",
    "city": "west newbury",
    "state": "ma",
    "country": "",
    "shape": "sphere",
    "duration (seconds)": 600,
    "duration (hours/min)": "10 minutes",
    "comments": "Witness one saw sphere shape with multiple lights&#44 stationary for a while.  green to red.    Witness 2 saw zig zagging pattern&#44 like a",
    "date posted": "10/14/13",
    "latitude": 42.766667,
    "longitude": -70.845833
  },
  {
    "id": 99,
    "datetime": "10/12/13 23:00",
    "city": "anderson",
    "state": "sc",
    "country": "us",
    "shape": "circle",
    "duration (seconds)": 20,
    "duration (hours/min)": "20 seconds",
    "comments": "3 orange balls of light&#44 that jet off one at a time in different directions&#33",
    "date posted": "10/14/13",
    "latitude": 34.5033333,
    "longitude": -82.6502778
  },
  {
    "id": 100,
    "datetime": "10/12/13 23:28",
    "city": "orangevale",
    "state": "ca",
    "country": "us",
    "shape": "fireball",
    "duration (seconds)": 600,
    "duration (hours/min)": "10 minutes",
    "comments": "8 Orange Fireballs In sky",
    "date posted": "11/11/13",
    "latitude": 38.6786111,
    "longitude": -121.2247222
  },
  {
    "id": 101,
    "datetime": "10/13/13 0:00",
    "city": "bloomington",
    "state": "mn",
    "country": "us",
    "shape": "sphere",
    "duration (seconds)": 120,
    "duration (hours/min)": "several minutes",
    "comments": "Several blue and white orbs hovering just south of the airport.",
    "date posted": "10/23/13",
    "latitude": 44.8408333,
    "longitude": -93.2980556
  },
  {
    "id": 102,
    "datetime": "10/13/13 2:59",
    "city": "salt lake city",
    "state": "ut",
    "country": "us",
    "shape": "unknown",
    "duration (seconds)": 5,
    "duration (hours/min)": "5 seconds",
    "comments": "Bright flash in the sky followed by a distant explosion about 3 seconds later. It was not lightning. It was not a stormy night and ther",
    "date posted": "10/14/13",
    "latitude": 40.7608333,
    "longitude": -111.8902778
  },
  {
    "id": 103,
    "datetime": "10/13/13 4:30",
    "city": "toronto (canada)",
    "state": "on",
    "country": "ca",
    "shape": "fireball",
    "duration (seconds)": 3600,
    "duration (hours/min)": "1 hour",
    "comments": "Orange fireballs over Lake Ontario.  Geometric shapes.",
    "date posted": "10/14/13",
    "latitude": 43.666667,
    "longitude": -79.416667
  },
  {
    "id": 104,
    "datetime": "10/13/13 5:01",
    "city": "newark",
    "state": "tx",
    "country": "us",
    "shape": "circle",
    "duration (seconds)": 10800,
    "duration (hours/min)": "3 hours",
    "comments": "Craft was low above trees circling lookin for something to pick up spraying white powder.",
    "date posted": "10/14/13",
    "latitude": 33.0011111,
    "longitude": -97.4841667
  },
  {
    "id": 105,
    "datetime": "10/13/13 10:50",
    "city": "santa fe",
    "state": "nm",
    "country": "us",
    "shape": "",
    "duration (seconds)": 600,
    "duration (hours/min)": "10 minutes",
    "comments": "((HOAX??))  Some kind of aircraft with a HUGE wingspan was flying very low over my neighborhood in Santa Fe&#44 NM.",
    "date posted": "11/11/13",
    "latitude": 35.6869444,
    "longitude": -105.9372222
  },
  {
    "id": 106,
    "datetime": "10/13/13 18:12",
    "city": "afton",
    "state": "mo",
    "country": "",
    "shape": "sphere",
    "duration (seconds)": 1200,
    "duration (hours/min)": "20 minutes",
    "comments": "As I watched the sunset I observed a large white sphere stationary to the south west of St.louis&#44 looked to be at least 40&#44000 feet&#44 ha",
    "date posted": "10/14/13",
    "latitude": 38.550608,
    "longitude": -90.333172
  },
  {
    "id": 107,
    "datetime": "10/13/13 18:57",
    "city": "council bluffs",
    "state": "ia",
    "country": "us",
    "shape": "formation",
    "duration (seconds)": 480,
    "duration (hours/min)": "8 minutes",
    "comments": "3 bright white amber lights forming a perfect triangle and moving into an arch without a vapor trail.",
    "date posted": "10/14/13",
    "latitude": 41.2619444,
    "longitude": -95.8608333
  },
  {
    "id": 108,
    "datetime": "10/13/13 18:57",
    "city": "council bluffs",
    "state": "ia",
    "country": "us",
    "shape": "light",
    "duration (seconds)": 480,
    "duration (hours/min)": "8 minutes",
    "comments": "Three white orange lights in the Western sky that formed a triangle then moved into a line before disappearing.",
    "date posted": "10/14/13",
    "latitude": 41.2619444,
    "longitude": -95.8608333
  },
  {
    "id": 109,
    "datetime": "10/13/13 19:00",
    "city": "irondequoit",
    "state": "ny",
    "country": "us",
    "shape": "fireball",
    "duration (seconds)": 600,
    "duration (hours/min)": "10 minutes",
    "comments": "Fireball like objects floating in the sky.....same path.",
    "date posted": "10/14/13",
    "latitude": 43.2133333,
    "longitude": -77.58
  },
  {
    "id": 110,
    "datetime": "10/13/13 19:00",
    "city": "orange",
    "state": "nj",
    "country": "us",
    "shape": "light",
    "duration (seconds)": 1800,
    "duration (hours/min)": "30+ minutes",
    "comments": "Bright white light  (occasionally diming and becoming fully bright again) displaying odd movements over the SW skies of Orange&#44 NJ",
    "date posted": "10/14/13",
    "latitude": 40.7705556,
    "longitude": -74.2330556
  },
  {
    "id": 111,
    "datetime": "10/13/13 19:30",
    "city": "oswego",
    "state": "il",
    "country": "us",
    "shape": "circle",
    "duration (seconds)": 600,
    "duration (hours/min)": "10 minutes",
    "comments": "4 bright orbs in loose triangle over Oswego&#44 IL&#44 planets or hovering craft?",
    "date posted": "10/14/13",
    "latitude": 41.6827778,
    "longitude": -88.3513889
  },
  {
    "id": 112,
    "datetime": "10/13/13 19:40",
    "city": "mechanicsburg",
    "state": "pa",
    "country": "us",
    "shape": "fireball",
    "duration (seconds)": 180,
    "duration (hours/min)": "2-3 minutes",
    "comments": "Ball of flames moving slowly across the night sky and witnessed by 4 people.",
    "date posted": "10/23/13",
    "latitude": 40.2141667,
    "longitude": -77.0088889
  },
  {
    "id": 113,
    "datetime": "10/13/13 19:45",
    "city": "pasadena",
    "state": "md",
    "country": "us",
    "shape": "circle",
    "duration (seconds)": 60,
    "duration (hours/min)": "1 minute",
    "comments": "Orange object with white streaks observed near BWI airport.",
    "date posted": "10/14/13",
    "latitude": 39.1072222,
    "longitude": -76.5713889
  },
  {
    "id": 114,
    "datetime": "10/13/13 19:45",
    "city": "spring hill",
    "state": "fl",
    "country": "us",
    "shape": "diamond",
    "duration (seconds)": 300,
    "duration (hours/min)": "4-5 minutes",
    "comments": "Five reddish objects in the sky moved from north to southest before going out of sight.",
    "date posted": "10/14/13",
    "latitude": 28.5555556,
    "longitude": -82.4505556
  },
  {
    "id": 115,
    "datetime": "10/13/13 19:47",
    "city": "spokane",
    "state": "wa",
    "country": "us",
    "shape": "flash",
    "duration (seconds)": 900,
    "duration (hours/min)": "8-15 minutes",
    "comments": "I was on the phone in my front yard when I looked up in the sky and saw strobe lights on a craft for approx 10 sec and stopped then the",
    "date posted": "10/14/13",
    "latitude": 47.6588889,
    "longitude": -117.425
  },
  {
    "id": 116,
    "datetime": "10/13/13 19:47",
    "city": "west palm beach",
    "state": "fl",
    "country": "us",
    "shape": "light",
    "duration (seconds)": 25,
    "duration (hours/min)": "20-25 seconds",
    "comments": "Flashing stationery light streaks off.",
    "date posted": "10/14/13",
    "latitude": 26.7052778,
    "longitude": -80.0366667
  },
  {
    "id": 117,
    "datetime": "10/13/13 20:00",
    "city": "jefferson/johnson creek",
    "state": "wi",
    "country": "",
    "shape": "light",
    "duration (seconds)": 1200,
    "duration (hours/min)": "20 minutes",
    "comments": "Saw abnormal lights over jefferson county",
    "date posted": "10/14/13",
    "latitude": 43.076113,
    "longitude": -88.774271
  },
  {
    "id": 118,
    "datetime": "10/13/13 20:00",
    "city": "sanford",
    "state": "fl",
    "country": "us",
    "shape": "unknown",
    "duration (seconds)": 900,
    "duration (hours/min)": "15 minutes",
    "comments": "5 orange glowing objects in sky moving faster than commercial jets",
    "date posted": "10/23/13",
    "latitude": 28.8002778,
    "longitude": -81.2733333
  },
  {
    "id": 119,
    "datetime": "10/13/13 20:30",
    "city": "bushnell",
    "state": "fl",
    "country": "us",
    "shape": "sphere",
    "duration (seconds)": 2700,
    "duration (hours/min)": "45 minutes",
    "comments": "Sphere shaped object&#44 5x brighter than a planet&#44 stationery for 45 min and then it was gone.  ((NUFORC Note:  Venus??  PD))",
    "date posted": "10/14/13",
    "latitude": 28.6647222,
    "longitude": -82.1130556
  },
  {
    "id": 120,
    "datetime": "10/13/13 20:30",
    "city": "raymond",
    "state": "oh",
    "country": "us",
    "shape": "unknown",
    "duration (seconds)": 600,
    "duration (hours/min)": "10 minutes",
    "comments": "UFO&#44 all sorts of colored lights",
    "date posted": "10/14/13",
    "latitude": 40.3347222,
    "longitude": -83.4658333
  },
  {
    "id": 121,
    "datetime": "10/13/13 20:40",
    "city": "indianapolis",
    "state": "in",
    "country": "us",
    "shape": "circle",
    "duration (seconds)": 1200,
    "duration (hours/min)": "20 minutes",
    "comments": "Multiple round shapes moving slowly accross the sky&#44 west of Raceway road we watched as multiple abjects cross the sky with no distint",
    "date posted": "10/14/13",
    "latitude": 39.7683333,
    "longitude": -86.1580556
  },
  {
    "id": 122,
    "datetime": "10/13/13 20:45",
    "city": "gobles",
    "state": "mi",
    "country": "us",
    "shape": "unknown",
    "duration (seconds)": 180,
    "duration (hours/min)": "3 minutes",
    "comments": "Bright light that stayed put then streaked away suddenly",
    "date posted": "10/14/13",
    "latitude": 42.3608333,
    "longitude": -85.8794444
  },
  {
    "id": 123,
    "datetime": "10/13/13 20:59",
    "city": "silverdale",
    "state": "wa",
    "country": "us",
    "shape": "light",
    "duration (seconds)": 2640,
    "duration (hours/min)": "5:44 minutes",
    "comments": "Orange orbs&#44 lights in the night sky",
    "date posted": "10/23/13",
    "latitude": 47.6447222,
    "longitude": -122.6936111
  },
  {
    "id": 124,
    "datetime": "10/13/13 21:15",
    "city": "livonia",
    "state": "mi",
    "country": "us",
    "shape": "triangle",
    "duration (seconds)": 55,
    "duration (hours/min)": "45-55 seconds",
    "comments": "On 10/13/2013 at approximately 9:15 pm I saw a black V-Shaped flying object with four rectangle white lights on each side. The size of",
    "date posted": "10/23/13",
    "latitude": 42.3683333,
    "longitude": -83.3527778
  },
  {
    "id": 125,
    "datetime": "10/13/13 21:30",
    "city": "regina (canada)",
    "state": "sk",
    "country": "ca",
    "shape": "light",
    "duration (seconds)": 20,
    "duration (hours/min)": "20 seconds",
    "comments": "Four red lights in sky&#44 that faded and disapeared",
    "date posted": "10/14/13",
    "latitude": 50.45,
    "longitude": -104.616667
  },
  {
    "id": 126,
    "datetime": "10/13/13 21:45",
    "city": "ligonier",
    "state": "pa",
    "country": "us",
    "shape": "light",
    "duration (seconds)": 180,
    "duration (hours/min)": "3 minutes",
    "comments": "Orange light disappeared after being flashed by laser",
    "date posted": "2/21/14",
    "latitude": 40.2430556,
    "longitude": -79.2377778
  },
  {
    "id": 127,
    "datetime": "10/13/13 22:00",
    "city": "walls",
    "state": "ms",
    "country": "us",
    "shape": "light",
    "duration (seconds)": 240,
    "duration (hours/min)": "3-4 minutes",
    "comments": "While camping out on the 13th of oct anround 9:00 to 11:00 pm saw a light travling North to South. the object stayed in view for a peri",
    "date posted": "10/23/13",
    "latitude": 34.9577778,
    "longitude": -90.1516667
  },
  {
    "id": 128,
    "datetime": "10/13/13 22:50",
    "city": "fishers",
    "state": "in",
    "country": "us",
    "shape": "changing",
    "duration (seconds)": 60,
    "duration (hours/min)": "1 minute",
    "comments": "One light appeared in the NW traveling and changed into one object as it traveled SE",
    "date posted": "10/14/13",
    "latitude": 39.9555556,
    "longitude": -86.0138889
  },
  {
    "id": 129,
    "datetime": "10/13/13 22:55",
    "city": "new york city (brooklyn)",
    "state": "ny",
    "country": "us",
    "shape": "sphere",
    "duration (seconds)": 420,
    "duration (hours/min)": "7 minutes",
    "comments": "Glowing lights above Brooklyn.",
    "date posted": "10/14/13",
    "latitude": 40.7141667,
    "longitude": -74.0063889
  },
  {
    "id": 130,
    "datetime": "10/13/13 23:00",
    "city": "warren",
    "state": "mi",
    "country": "us",
    "shape": "sphere",
    "duration (seconds)": 3,
    "duration (hours/min)": "1-3 seconds",
    "comments": "Very fast moving bright star-like light moving from @ 25-30 degrees to the western horizon then abruptly disappearing.  Not meteor.",
    "date posted": "10/14/13",
    "latitude": 42.4775,
    "longitude": -83.0277778
  },
  {
    "id": 131,
    "datetime": "10/13/13 23:05",
    "city": "kolhapur (india)",
    "state": "",
    "country": "",
    "shape": "triangle",
    "duration (seconds)": 3,
    "duration (hours/min)": "2-3 seconds",
    "comments": "Place: Kolhapur&#44 Maharashtra&#44 India Location:- Chandwani Hall&#44 Tarabai Park Time:- Indian standard time 23:05 (11:05 p.m. ) Lat",
    "date posted": "10/14/13",
    "latitude": 16.691308,
    "longitude": 74.244866
  },
  {
    "id": 132,
    "datetime": "10/13/13 23:30",
    "city": "sheldon",
    "state": "ia",
    "country": "us",
    "shape": "circle",
    "duration (seconds)": 300,
    "duration (hours/min)": "5 minutes",
    "comments": "Ashton&#44 Iowa sighting.",
    "date posted": "10/23/13",
    "latitude": 43.1811111,
    "longitude": -95.8558333
  },
  {
    "id": 133,
    "datetime": "10/14/13 0:35",
    "city": "forked river",
    "state": "nj",
    "country": "us",
    "shape": "circle",
    "duration (seconds)": 60,
    "duration (hours/min)": "1 minute",
    "comments": "Red/gold fireball haze around it  stayed same size moving same speed much bigger then any star no meteor for sure.",
    "date posted": "10/14/13",
    "latitude": 39.8397222,
    "longitude": -74.1905556
  },
  {
    "id": 134,
    "datetime": "10/14/13 1:40",
    "city": "albuquerque",
    "state": "nm",
    "country": "us",
    "shape": "flash",
    "duration (seconds)": 2700,
    "duration (hours/min)": "30-45 minutes",
    "comments": "3 flashing green lights in formatiom of a triangle to big to.be stars",
    "date posted": "10/14/13",
    "latitude": 35.0844444,
    "longitude": -106.6505556
  },
  {
    "id": 135,
    "datetime": "10/14/13 11:47",
    "city": "hampton",
    "state": "nh",
    "country": "us",
    "shape": "cylinder",
    "duration (seconds)": 60,
    "duration (hours/min)": "<1 minute",
    "comments": "White cylinder with red light at back. Didn&#39t have wings.  Moving silently very fast towards the southwest then disappeared&#33",
    "date posted": "10/14/13",
    "latitude": 42.9375,
    "longitude": -70.8394444
  },
  {
    "id": 136,
    "datetime": "10/14/13 16:00",
    "city": "buckingham",
    "state": "pa",
    "country": "us",
    "shape": "rectangle",
    "duration (seconds)": 600,
    "duration (hours/min)": "10 minutes",
    "comments": "Rectangular floating object&#44 4X the size of a hot air balloon&#44 but at about the same height as hot air balloon travels. Grayish.",
    "date posted": "10/23/13",
    "latitude": 40.3236111,
    "longitude": -75.0602778
  },
  {
    "id": 137,
    "datetime": "10/14/13 16:00",
    "city": "hawkesbury (canada)",
    "state": "on",
    "country": "ca",
    "shape": "sphere",
    "duration (seconds)": 30,
    "duration (hours/min)": "30 seconds",
    "comments": "One bright-white orb moving erratically over highway 50 in quebec &#44canada seemed to appear and warp to another point in the sky.",
    "date posted": "10/23/13",
    "latitude": 45.616667,
    "longitude": -74.6
  },
  {
    "id": 138,
    "datetime": "10/14/13 16:00",
    "city": "hawkesbury (canada)",
    "state": "on",
    "country": "ca",
    "shape": "sphere",
    "duration (seconds)": 30,
    "duration (hours/min)": "30 seconds",
    "comments": "One bright-white orb moving erratically over highway 50 in quebec&#44 canada seemed to appear and warp to another point in the sky.",
    "date posted": "10/23/13",
    "latitude": 45.616667,
    "longitude": -74.6
  },
  {
    "id": 139,
    "datetime": "10/14/13 16:45",
    "city": "charlotte",
    "state": "nc",
    "country": "us",
    "shape": "sphere",
    "duration (seconds)": 240,
    "duration (hours/min)": "4 minutes",
    "comments": "White object slowed to a stop.  Remained motionless about a minute and disappeared.",
    "date posted": "10/23/13",
    "latitude": 35.2269444,
    "longitude": -80.8433333
  },
  {
    "id": 140,
    "datetime": "10/14/13 18:00",
    "city": "vernon hills",
    "state": "il",
    "country": "us",
    "shape": "cigar",
    "duration (seconds)": 240,
    "duration (hours/min)": "4 minutes",
    "comments": "Silent tube-like crafts-objects like nothing I have ever seen anywhere&#33",
    "date posted": "10/23/13",
    "latitude": 42.2194444,
    "longitude": -87.9794444
  },
  {
    "id": 141,
    "datetime": "10/14/13 19:00",
    "city": "seaside",
    "state": "or",
    "country": "us",
    "shape": "light",
    "duration (seconds)": 900,
    "duration (hours/min)": "15 minutes",
    "comments": "Bright white light in the dusk sky over ocean.",
    "date posted": "10/23/13",
    "latitude": 45.9933333,
    "longitude": -123.9213889
  },
  {
    "id": 142,
    "datetime": "10/14/13 19:15",
    "city": "oakland",
    "state": "ca",
    "country": "us",
    "shape": "light",
    "duration (seconds)": 300,
    "duration (hours/min)": "5 minutes",
    "comments": "Intense&#44 stationary bright light in SF Bay Area sky.",
    "date posted": "10/23/13",
    "latitude": 37.8044444,
    "longitude": -122.2697222
  },
  {
    "id": 143,
    "datetime": "10/14/13 19:30",
    "city": "green bay",
    "state": "wi",
    "country": "us",
    "shape": "light",
    "duration (seconds)": 180,
    "duration (hours/min)": "3 minutes",
    "comments": "Silent light UFO spotted and rose into the clouds.",
    "date posted": "10/23/13",
    "latitude": 44.5191667,
    "longitude": -88.0197222
  },
  {
    "id": 144,
    "datetime": "10/14/13 19:30",
    "city": "ruston",
    "state": "la",
    "country": "us",
    "shape": "sphere",
    "duration (seconds)": 900,
    "duration (hours/min)": "15 minutes",
    "comments": "Reddish/orange balls of light over Ruston.",
    "date posted": "10/23/13",
    "latitude": 32.5230556,
    "longitude": -92.6377778
  },
  {
    "id": 145,
    "datetime": "10/14/13 19:30",
    "city": "toronto (canada)",
    "state": "on",
    "country": "ca",
    "shape": "light",
    "duration (seconds)": 1200,
    "duration (hours/min)": "15-20 minutes",
    "comments": "8 Red Orb Lights over large City of Toronto.",
    "date posted": "10/23/13",
    "latitude": 43.666667,
    "longitude": -79.416667
  },
  {
    "id": 146,
    "datetime": "10/14/13 20:00",
    "city": "leland",
    "state": "mi",
    "country": "us",
    "shape": "disk",
    "duration (seconds)": 120,
    "duration (hours/min)": "2 minutes",
    "comments": "9 sphere shaped objects ; orange red in color",
    "date posted": "10/23/13",
    "latitude": 45.0230556,
    "longitude": -85.7597222
  },
  {
    "id": 147,
    "datetime": "10/14/13 20:15",
    "city": "holgate",
    "state": "nj",
    "country": "us",
    "shape": "circle",
    "duration (seconds)": 300,
    "duration (hours/min)": "5 minutes",
    "comments": "My self&#44daughter and son were on the beach fishing.it was cloudy some moonlight some cloud cover&#44mind you I am not a believer before th",
    "date posted": "11/11/13",
    "latitude": 39.54,
    "longitude": -74.2572222
  },
  {
    "id": 148,
    "datetime": "10/14/13 20:15",
    "city": "salt lake valley",
    "state": "ut",
    "country": "",
    "shape": "light",
    "duration (seconds)": 1200,
    "duration (hours/min)": "20 minutes",
    "comments": "Stationary light circled by helicopters&#44",
    "date posted": "10/23/13",
    "latitude": 40.766613,
    "longitude": -111.967439
  },
  {
    "id": 149,
    "datetime": "10/14/13 20:30",
    "city": "kalamazoo",
    "state": "mi",
    "country": "us",
    "shape": "circle",
    "duration (seconds)": 300,
    "duration (hours/min)": "5 minutes",
    "comments": "Red circle over Kalamazoo.",
    "date posted": "10/23/13",
    "latitude": 42.2916667,
    "longitude": -85.5872222
  },
  {
    "id": 150,
    "datetime": "10/14/13 20:30",
    "city": "point arena",
    "state": "ca",
    "country": "us",
    "shape": "triangle",
    "duration (seconds)": 900,
    "duration (hours/min)": "15 minutes",
    "comments": "2 very different incidences a week apart&#44 triangler (tonight)&#44 and very bright far away organish glow.(10/9/2013)",
    "date posted": "10/23/13",
    "latitude": 38.9088889,
    "longitude": -123.6919444
  },
  {
    "id": 151,
    "datetime": "10/14/13 22:00",
    "city": "watchung area (i believe)",
    "state": "nj",
    "country": "",
    "shape": "unknown",
    "duration (seconds)": 2400,
    "duration (hours/min)": "so far...40 mins",
    "comments": "Vertical column of 3 pulsating lights that change color. To the left of Orion&#39s belt looking east from Warren.",
    "date posted": "10/23/13",
    "latitude": 40.683512,
    "longitude": -74.376508
  },
  {
    "id": 152,
    "datetime": "10/14/13 23:00",
    "city": "warren",
    "state": "oh",
    "country": "us",
    "shape": "circle",
    "duration (seconds)": 45,
    "duration (hours/min)": "45 seconds",
    "comments": "I seen an bright orange round star ship 10 times the size of a bright star  for aprox 45 sec and then it blinked out .",
    "date posted": "10/23/13",
    "latitude": 41.2375,
    "longitude": -80.8186111
  },
  {
    "id": 153,
    "datetime": "10/15/13 6:20",
    "city": "fremont",
    "state": "ca",
    "country": "us",
    "shape": "other",
    "duration (seconds)": 120,
    "duration (hours/min)": "2 minutes",
    "comments": "Star-like shaped with a glowing red center&#44slow moving...at a helicopters height in the air.",
    "date posted": "10/23/13",
    "latitude": 37.5483333,
    "longitude": -121.9875
  },
  {
    "id": 154,
    "datetime": "10/15/13 9:15",
    "city": "hunlock creek",
    "state": "pa",
    "country": "us",
    "shape": "triangle",
    "duration (seconds)": 600,
    "duration (hours/min)": "10 minutes",
    "comments": "I went outside for a cigarette&#44 I was about a quarter of my cigarette gone and I notice a light from the left of me. I have a lake in t",
    "date posted": "3/18/14",
    "latitude": 41.2058333,
    "longitude": -76.0663889
  },
  {
    "id": 155,
    "datetime": "10/15/13 11:30",
    "city": "beale afb",
    "state": "ca",
    "country": "",
    "shape": "sphere",
    "duration (seconds)": 180,
    "duration (hours/min)": "3 minutes",
    "comments": "5 grey spheres directly over military aircraft taking off; daylight sighting.",
    "date posted": "10/23/13",
    "latitude": 39.111504,
    "longitude": -121.359881
  },
  {
    "id": 156,
    "datetime": "10/15/13 14:45",
    "city": "bowdoinham",
    "state": "me",
    "country": "us",
    "shape": "unknown",
    "duration (seconds)": 1800,
    "duration (hours/min)": "30 minutes",
    "comments": "One brightly blue&#44 red white condensed light moving silently and too slowly to be a plane moving north then west.",
    "date posted": "10/23/13",
    "latitude": 44.01,
    "longitude": -69.8988889
  },
  {
    "id": 157,
    "datetime": "10/15/13 15:00",
    "city": "bethesda",
    "state": "md",
    "country": "us",
    "shape": "disk",
    "duration (seconds)": 7,
    "duration (hours/min)": "7 seconds",
    "comments": "Saucer flying low and fast over Betheda/Rockville area in broad daylight.",
    "date posted": "12/5/13",
    "latitude": 38.9805556,
    "longitude": -77.1005556
  },
  {
    "id": 158,
    "datetime": "10/15/13 16:00",
    "city": "lake havasu city",
    "state": "az",
    "country": "us",
    "shape": "fireball",
    "duration (seconds)": 10,
    "duration (hours/min)": "10 seconds",
    "comments": "UFO&#39s sighted flying in the Lake Havasu City&#44 AZ night sky.",
    "date posted": "10/23/13",
    "latitude": 34.4838889,
    "longitude": -114.3216667
  },
  {
    "id": 159,
    "datetime": "10/15/13 16:45",
    "city": "bozeman",
    "state": "mt",
    "country": "us",
    "shape": "light",
    "duration (seconds)": 120,
    "duration (hours/min)": "2 minutes",
    "comments": "Light to the west.",
    "date posted": "10/23/13",
    "latitude": 45.6797222,
    "longitude": -111.0377778
  },
  {
    "id": 160,
    "datetime": "10/15/13 17:00",
    "city": "kirkland (canada)",
    "state": "qc",
    "country": "ca",
    "shape": "disk",
    "duration (seconds)": 300,
    "duration (hours/min)": "5 minutes",
    "comments": "Flying saucer there than gone in seconds.",
    "date posted": "3/18/14",
    "latitude": 45.46,
    "longitude": -73.85
  },
  {
    "id": 161,
    "datetime": "10/15/13 18:25",
    "city": "chennai (india)",
    "state": "",
    "country": "",
    "shape": "circle",
    "duration (seconds)": 30,
    "duration (hours/min)": "30 seconds",
    "comments": "Yellowish/orange sphere observed in the sky.",
    "date posted": "10/23/13",
    "latitude": 13.052414,
    "longitude": 80.250825
  },
  {
    "id": 162,
    "datetime": "10/15/13 19:30",
    "city": "rockford",
    "state": "il",
    "country": "us",
    "shape": "changing",
    "duration (seconds)": 1500,
    "duration (hours/min)": "20-25 minutes",
    "comments": "Bright red&#44 white&#44 and orange lights hovering in the western sky.",
    "date posted": "10/23/13",
    "latitude": 42.2711111,
    "longitude": -89.0938889
  },
  {
    "id": 163,
    "datetime": "10/15/13 19:35",
    "city": "brigantine",
    "state": "nj",
    "country": "us",
    "shape": "unknown",
    "duration (seconds)": 90,
    "duration (hours/min)": "90 seconds",
    "comments": "Orange light craft not defined moved slowly almost hovering at time then disappeared quickly.",
    "date posted": "10/23/13",
    "latitude": 39.41,
    "longitude": -74.365
  },
  {
    "id": 164,
    "datetime": "10/15/13 20:00",
    "city": "boise",
    "state": "id",
    "country": "us",
    "shape": "chevron",
    "duration (seconds)": 30,
    "duration (hours/min)": "30 seconds",
    "comments": "V-shaped UFO over Boise&#39s Northend.",
    "date posted": "10/23/13",
    "latitude": 43.6136111,
    "longitude": -116.2025
  },
  {
    "id": 165,
    "datetime": "10/15/13 20:00",
    "city": "yadkinville",
    "state": "nc",
    "country": "us",
    "shape": "other",
    "duration (seconds)": 480,
    "duration (hours/min)": "8 minutes",
    "comments": "A bright light shifting from a circular light to a saucerlike line of light.",
    "date posted": "10/23/13",
    "latitude": 36.1344444,
    "longitude": -80.6597222
  },
  {
    "id": 166,
    "datetime": "10/15/13 20:30",
    "city": "ocean isle beach",
    "state": "nc",
    "country": "us",
    "shape": "light",
    "duration (seconds)": 3,
    "duration (hours/min)": "3 seconds",
    "comments": "A string of five orange lights.",
    "date posted": "10/23/13",
    "latitude": 33.8941667,
    "longitude": -78.4269444
  },
  {
    "id": 167,
    "datetime": "10/15/13 20:35",
    "city": "reseda",
    "state": "ca",
    "country": "us",
    "shape": "sphere",
    "duration (seconds)": 0.5,
    "duration (hours/min)": "<0.5 second",
    "comments": "Green laser ball spontaneously appears at elevation of low-flying airplane&#44 then almost zips away into black sky.",
    "date posted": "10/23/13",
    "latitude": 34.2011111,
    "longitude": -118.5355556
  },
  {
    "id": 168,
    "datetime": "10/15/13 21:45",
    "city": "blaine",
    "state": "wa",
    "country": "us",
    "shape": "disk",
    "duration (seconds)": 300,
    "duration (hours/min)": "~5:00 minutes",
    "comments": "Bright yellow object that cast light on cloud cover above it and was a disk or saucer shape.",
    "date posted": "10/23/13",
    "latitude": 48.9938889,
    "longitude": -122.7458333
  },
  {
    "id": 169,
    "datetime": "10/15/13 22:00",
    "city": "albuquerque",
    "state": "nm",
    "country": "us",
    "shape": "flash",
    "duration (seconds)": 60,
    "duration (hours/min)": "1 minute",
    "comments": "While getting off freeway on Eubank exit a bright flash of light went in front of car had to brake apparently vehicle next to us disapp",
    "date posted": "10/23/13",
    "latitude": 35.0844444,
    "longitude": -106.6505556
  },
  {
    "id": 170,
    "datetime": "10/15/13 22:30",
    "city": "sacramento",
    "state": "ca",
    "country": "us",
    "shape": "light",
    "duration (seconds)": 240,
    "duration (hours/min)": "4 minutes",
    "comments": "Orange orb drops flashing orbs over sky in Sacramento then disappears.",
    "date posted": "10/23/13",
    "latitude": 38.5816667,
    "longitude": -121.4933333
  },
  {
    "id": 171,
    "datetime": "10/15/13 23:00",
    "city": "catoosa",
    "state": "ok",
    "country": "us",
    "shape": "other",
    "duration (seconds)": 60,
    "duration (hours/min)": "1 minutes",
    "comments": "I looked to the south at night and saw a very Large V shape ship it did not have lights and was very slow in flight and no sound.",
    "date posted": "10/23/13",
    "latitude": 36.1888889,
    "longitude": -95.7455556
  },
  {
    "id": 172,
    "datetime": "10/15/13 23:30",
    "city": "reedsville",
    "state": "wv",
    "country": "us",
    "shape": "triangle",
    "duration (seconds)": 60,
    "duration (hours/min)": "1 minute",
    "comments": "Dark-colored&#44 silent&#44 hovering triangle with red and white lights.",
    "date posted": "12/2/13",
    "latitude": 39.5105556,
    "longitude": -79.7986111
  },
  {
    "id": 173,
    "datetime": "10/16/13 0:15",
    "city": "bath",
    "state": "pa",
    "country": "us",
    "shape": "light",
    "duration (seconds)": 60,
    "duration (hours/min)": "1 minute",
    "comments": "Bright&#44 stationary&#44 flickering orange light slowly dimming until no longer visible.",
    "date posted": "10/23/13",
    "latitude": 40.7255556,
    "longitude": -75.3944444
  },
  {
    "id": 174,
    "datetime": "10/16/13 8:40",
    "city": "spencer",
    "state": "in",
    "country": "us",
    "shape": "formation",
    "duration (seconds)": 600,
    "duration (hours/min)": "10 minutes",
    "comments": "Pulsating red lights in formation.",
    "date posted": "10/23/13",
    "latitude": 39.2866667,
    "longitude": -86.7625
  },
  {
    "id": 175,
    "datetime": "10/16/13 18:50",
    "city": "carlisle",
    "state": "pa",
    "country": "us",
    "shape": "cigar",
    "duration (seconds)": 420,
    "duration (hours/min)": "7 minutes",
    "comments": "Straight pink light traveling across sky.",
    "date posted": "10/23/13",
    "latitude": 40.2013889,
    "longitude": -77.1891667
  },
  {
    "id": 176,
    "datetime": "10/16/13 19:05",
    "city": "oakdale",
    "state": "mn",
    "country": "us",
    "shape": "formation",
    "duration (seconds)": 600,
    "duration (hours/min)": "10 minutes",
    "comments": "White in nature - one varied to red.",
    "date posted": "10/23/13",
    "latitude": 44.9630556,
    "longitude": -92.9647222
  },
  {
    "id": 177,
    "datetime": "10/16/13 19:15",
    "city": "new bedford",
    "state": "ma",
    "country": "us",
    "shape": "light",
    "duration (seconds)": 600,
    "duration (hours/min)": "10 minutes",
    "comments": "Multiple orange lights traveling in formation quietly at low speed &amp; seemed to all disappear at the same spot.",
    "date posted": "10/23/13",
    "latitude": 41.6361111,
    "longitude": -70.9347222
  },
  {
    "id": 178,
    "datetime": "10/16/13 19:30",
    "city": "queen creek",
    "state": "az",
    "country": "us",
    "shape": "unknown",
    "duration (seconds)": 600,
    "duration (hours/min)": "10 minutes",
    "comments": "Flashing lights that turned into a steady burning ball and then vanished.",
    "date posted": "10/23/13",
    "latitude": 33.2486111,
    "longitude": -111.6336111
  },
  {
    "id": 179,
    "datetime": "10/16/13 20:15",
    "city": "amelia",
    "state": "oh",
    "country": "us",
    "shape": "circle",
    "duration (seconds)": 2,
    "duration (hours/min)": "2 seconds",
    "comments": "Flash of light than a fast red light across the sky heading southwest.  No tail like a shooting star or comet. Appeared to low and WAY",
    "date posted": "10/23/13",
    "latitude": 39.0283333,
    "longitude": -84.2177778
  },
  {
    "id": 180,
    "datetime": "10/16/13 20:23",
    "city": "sacramento",
    "state": "ca",
    "country": "us",
    "shape": "circle",
    "duration (seconds)": 60,
    "duration (hours/min)": "1 minute",
    "comments": "2 orb-like craft witnessed over Carmichael area of Sacramento.",
    "date posted": "10/23/13",
    "latitude": 38.5816667,
    "longitude": -121.4933333
  },
  {
    "id": 181,
    "datetime": "10/16/13 20:57",
    "city": "fort worth",
    "state": "tx",
    "country": "us",
    "shape": "cylinder",
    "duration (seconds)": 180,
    "duration (hours/min)": "3 minutes",
    "comments": "Me and a friend of mine were driving down Alemeda St between Westpoint Blvd and Academy Blvd when we saw an orange orb in the sky. Once",
    "date posted": "10/23/13",
    "latitude": 32.7252778,
    "longitude": -97.3205556
  },
  {
    "id": 182,
    "datetime": "10/16/13 21:20",
    "city": "surfside/myrtle beach",
    "state": "sc",
    "country": "",
    "shape": "fireball",
    "duration (seconds)": 60,
    "duration (hours/min)": "60 seconds",
    "comments": "Slow moving firey ball spotted at surfside beach sc.",
    "date posted": "10/23/13",
    "latitude": 33.629974,
    "longitude": -78.964882
  },
  {
    "id": 183,
    "datetime": "10/16/13 21:30",
    "city": "globe",
    "state": "az",
    "country": "us",
    "shape": "other",
    "duration (seconds)": 1500,
    "duration (hours/min)": "25 minutes",
    "comments": "Six objects each consisting of an arc shaped pattern of 7 lights spotted near Globe&#44 AZ.",
    "date posted": "11/11/13",
    "latitude": 33.3941667,
    "longitude": -110.7858333
  },
  {
    "id": 184,
    "datetime": "10/16/13 21:40",
    "city": "indianapolis",
    "state": "in",
    "country": "us",
    "shape": "circle",
    "duration (seconds)": 300,
    "duration (hours/min)": "5 minutes",
    "comments": "I was driving West on McGregor Road. I seen two orange balls on light. When the one on the left got close to the one on the right it go",
    "date posted": "10/23/13",
    "latitude": 39.7683333,
    "longitude": -86.1580556
  },
  {
    "id": 185,
    "datetime": "10/16/13 22:30",
    "city": "south weber",
    "state": "ut",
    "country": "us",
    "shape": "egg",
    "duration (seconds)": 3,
    "duration (hours/min)": "3 seconds",
    "comments": "Bright egg shaped green light fly across the sky in 2-3 seconds.",
    "date posted": "10/23/13",
    "latitude": 41.1325,
    "longitude": -111.9294444
  },
  {
    "id": 186,
    "datetime": "10/16/13 22:45",
    "city": "payette",
    "state": "id",
    "country": "us",
    "shape": "other",
    "duration (seconds)": 180,
    "duration (hours/min)": "3 minutes",
    "comments": "My wife and i took two pictures of seven orbs moving slowly across the sky.",
    "date posted": "10/23/13",
    "latitude": 44.0783333,
    "longitude": -116.9327778
  },
  {
    "id": 187,
    "datetime": "10/16/13 22:57",
    "city": "meridian",
    "state": "id",
    "country": "us",
    "shape": "formation",
    "duration (seconds)": 300,
    "duration (hours/min)": "5 minutes",
    "comments": "W Shape Formation&#44 Meridian&#44 ID.",
    "date posted": "10/23/13",
    "latitude": 43.6122222,
    "longitude": -116.3905556
  },
  {
    "id": 188,
    "datetime": "10/17/13 1:00",
    "city": "cornwall (canada)",
    "state": "on",
    "country": "ca",
    "shape": "other",
    "duration (seconds)": 180,
    "duration (hours/min)": "3 minutes",
    "comments": "freek me out ?",
    "date posted": "1/16/14",
    "latitude": 46.24,
    "longitude": -63.21
  },
  {
    "id": 189,
    "datetime": "10/17/13 6:45",
    "city": "lakeside",
    "state": "ca",
    "country": "us",
    "shape": "circle",
    "duration (seconds)": 600,
    "duration (hours/min)": "10 minutes",
    "comments": "Bright lights in early morning sky in eastern San Diego County.",
    "date posted": "10/23/13",
    "latitude": 32.8572222,
    "longitude": -116.9213889
  },
  {
    "id": 190,
    "datetime": "10/17/13 7:00",
    "city": "san jose",
    "state": "ca",
    "country": "us",
    "shape": "other",
    "duration (seconds)": 5,
    "duration (hours/min)": "5 seconds",
    "comments": "Object&#44 large in nature&#44 with a bright white light tail entering the atmosphere in California.",
    "date posted": "10/23/13",
    "latitude": 37.3394444,
    "longitude": -121.8938889
  },
  {
    "id": 191,
    "datetime": "10/17/13 8:17",
    "city": "palm harbor",
    "state": "fl",
    "country": "us",
    "shape": "unknown",
    "duration (seconds)": 2700,
    "duration (hours/min)": "~45 minutes",
    "comments": "Strange starlike object seen in southwestern florida sky&#44 with dim object directly beneath.",
    "date posted": "10/23/13",
    "latitude": 28.0777778,
    "longitude": -82.7638889
  },
  {
    "id": 192,
    "datetime": "10/17/13 18:50",
    "city": "wymondham (norfolk)(uk/england)",
    "state": "",
    "country": "gb",
    "shape": "other",
    "duration (seconds)": 60,
    "duration (hours/min)": "1 minute",
    "comments": "Stingray shaped with green/blue light each side of the craft being guided to base by 4/5 F15&#39s ?",
    "date posted": "10/23/13",
    "latitude": 52.566667,
    "longitude": 1.116667
  },
  {
    "id": 193,
    "datetime": "10/17/13 19:40",
    "city": "independence",
    "state": "va",
    "country": "us",
    "shape": "disk",
    "duration (seconds)": 300,
    "duration (hours/min)": "5 minutes",
    "comments": "Disk shaped object tracking airplane.",
    "date posted": "10/23/13",
    "latitude": 36.6222222,
    "longitude": -81.1511111
  },
  {
    "id": 194,
    "datetime": "10/17/13 20:00",
    "city": "colville",
    "state": "wa",
    "country": "us",
    "shape": "light",
    "duration (seconds)": 300,
    "duration (hours/min)": "4-5 minutes",
    "comments": "Small white light passing quickly across the sky&#44 dropping&#44 and disappearing after ~4 mins.  ((NUFORC Note:  ISS over-flight?  PD))",
    "date posted": "10/23/13",
    "latitude": 48.5466667,
    "longitude": -117.9044444
  },
  {
    "id": 195,
    "datetime": "10/17/13 20:00",
    "city": "davie",
    "state": "fl",
    "country": "us",
    "shape": "light",
    "duration (seconds)": 7200,
    "duration (hours/min)": "2 hrs",
    "comments": "SOLID&#44 BRIGHT&#44 WHITE STATIONARY  CIRCULAR LIGHT HIGH IN SKY FOR 2 HRS WEST DAVIE&#44 FL.  ((NUFORC Note:  Venus??  PD))",
    "date posted": "11/11/13",
    "latitude": 26.0625,
    "longitude": -80.2333333
  },
  {
    "id": 196,
    "datetime": "10/17/13 20:26",
    "city": "holgate (lbi)",
    "state": "nj",
    "country": "us",
    "shape": "circle",
    "duration (seconds)": 60,
    "duration (hours/min)": "<1 minute",
    "comments": "Long Orange Cigar Shape with two smaller circular Orb shapes that appeared and disappeared fast over the water.",
    "date posted": "10/23/13",
    "latitude": 39.54,
    "longitude": -74.2572222
  },
  {
    "id": 197,
    "datetime": "10/17/13 20:45",
    "city": "boise",
    "state": "id",
    "country": "us",
    "shape": "fireball",
    "duration (seconds)": 5,
    "duration (hours/min)": "5 seconds",
    "comments": "White ball of light traveling at high rate of speed vanishes over southern Boise&#44 Idaho.",
    "date posted": "10/23/13",
    "latitude": 43.6136111,
    "longitude": -116.2025
  },
  {
    "id": 198,
    "datetime": "10/17/13 21:00",
    "city": "silverdale",
    "state": "wa",
    "country": "us",
    "shape": "light",
    "duration (seconds)": 900,
    "duration (hours/min)": "15 minutes",
    "comments": "Orange orbs&#44 lights in the night sky again.",
    "date posted": "10/23/13",
    "latitude": 47.6447222,
    "longitude": -122.6936111
  },
  {
    "id": 199,
    "datetime": "10/17/13 21:15",
    "city": "carolina beach",
    "state": "nc",
    "country": "us",
    "shape": "circle",
    "duration (seconds)": 2,
    "duration (hours/min)": "seconds",
    "comments": "Bright orange circles over Atlantic Ocean  3 in a row.  It was only seconds in the sky then they disappeared.",
    "date posted": "10/23/13",
    "latitude": 34.035,
    "longitude": -77.8938889
  },
  {
    "id": 200,
    "datetime": "10/17/13 21:35",
    "city": "okeechobee",
    "state": "fl",
    "country": "us",
    "shape": "light",
    "duration (seconds)": 900,
    "duration (hours/min)": "15 minutes",
    "comments": "Bright Red and White pulsing light.",
    "date posted": "10/23/13",
    "latitude": 27.2436111,
    "longitude": -80.83
  },
  {
    "id": 201,
    "datetime": "10/17/13 22:18",
    "city": "charlottesville",
    "state": "va",
    "country": "us",
    "shape": "light",
    "duration (seconds)": 300,
    "duration (hours/min)": "3-5 minutes",
    "comments": "Yellowish&#44 single&#44 steady and silent ball of light with a contrail.  ((NUFORC Note:  Could not have been the ISS.  PD))",
    "date posted": "10/23/13",
    "latitude": 38.0291667,
    "longitude": -78.4769444
  },
  {
    "id": 202,
    "datetime": "10/17/13 23:00",
    "city": "vista",
    "state": "ca",
    "country": "us",
    "shape": "oval",
    "duration (seconds)": 1200,
    "duration (hours/min)": "20 minutes",
    "comments": "I saw unidentified lights in the night sky.",
    "date posted": "10/23/13",
    "latitude": 33.2,
    "longitude": -117.2416667
  },
  {
    "id": 203,
    "datetime": "10/18/13 0:00",
    "city": "keizer",
    "state": "or",
    "country": "us",
    "shape": "fireball",
    "duration (seconds)": 30,
    "duration (hours/min)": "30 seconds",
    "comments": "Went out to smoke&#44 heard segulls&#44 looked up&#44 saw random orange ball move quickly like a shooting star and make a big angled curve.",
    "date posted": "10/23/13",
    "latitude": 44.9902778,
    "longitude": -123.025
  },
  {
    "id": 204,
    "datetime": "10/18/13 1:45",
    "city": "litchfield",
    "state": "nh",
    "country": "us",
    "shape": "circle",
    "duration (seconds)": 180,
    "duration (hours/min)": "3 minutes",
    "comments": "Bright object moving in sky.",
    "date posted": "10/23/13",
    "latitude": 42.8441667,
    "longitude": -71.4802778
  },
  {
    "id": 205,
    "datetime": "10/18/13 8:00",
    "city": "boca raton",
    "state": "fl",
    "country": "us",
    "shape": "fireball",
    "duration (seconds)": 600,
    "duration (hours/min)": "10 minutes",
    "comments": "Orange fire balls flying in the sky",
    "date posted": "10/23/13",
    "latitude": 26.3583333,
    "longitude": -80.0833333
  },
  {
    "id": 206,
    "datetime": "10/18/13 17:30",
    "city": "pullman",
    "state": "wa",
    "country": "us",
    "shape": "light",
    "duration (seconds)": 600,
    "duration (hours/min)": "10 minutes",
    "comments": "Red planetary looking object sighted near full moon in eastern sky above Pullman&#44 WA",
    "date posted": "10/23/13",
    "latitude": 46.7313889,
    "longitude": -117.1786111
  },
  {
    "id": 207,
    "datetime": "10/18/13 19:00",
    "city": "antelope",
    "state": "ca",
    "country": "us",
    "shape": "cylinder",
    "duration (seconds)": 600,
    "duration (hours/min)": "10 minutes",
    "comments": "On 10/18/13 at 19:00 we (adult and 2 teenagers) noticed a red/orange glowing cylinder object due west from our upstairs bedroom window.",
    "date posted": "10/23/13",
    "latitude": 38.7083333,
    "longitude": -121.3288889
  },
  {
    "id": 208,
    "datetime": "10/18/13 19:15",
    "city": "milton",
    "state": "vt",
    "country": "us",
    "shape": "light",
    "duration (seconds)": 900,
    "duration (hours/min)": "15 minutes",
    "comments": "Cluster of red lights over Lake Arrowhead in Milton&#44 VT.",
    "date posted": "10/23/13",
    "latitude": 44.6397222,
    "longitude": -73.1108333
  },
  {
    "id": 209,
    "datetime": "10/18/13 19:15",
    "city": "pinecrest/sonora",
    "state": "ca",
    "country": "",
    "shape": "unknown",
    "duration (seconds)": 2700,
    "duration (hours/min)": "45 minutes",
    "comments": "Smaller blinking red object to my left of the bright white light with a round red ball like object following below.",
    "date posted": "10/23/13",
    "latitude": 37.98295,
    "longitude": -120.382172
  },
  {
    "id": 210,
    "datetime": "10/18/13 19:19",
    "city": "heer (belgium)",
    "state": "",
    "country": "",
    "shape": "unknown",
    "duration (seconds)": 30,
    "duration (hours/min)": "30 seconds",
    "comments": "Lights going slow to fast.",
    "date posted": "10/23/13",
    "latitude": 50.75368,
    "longitude": 5.30209
  },
  {
    "id": 211,
    "datetime": "10/18/13 19:30",
    "city": "victoria (canada)",
    "state": "bc",
    "country": "ca",
    "shape": "light",
    "duration (seconds)": 600,
    "duration (hours/min)": "10 minutes",
    "comments": "3 orange lights seen moving in the sky",
    "date posted": "10/23/13",
    "latitude": 46.216667,
    "longitude": -63.483333
  },
  {
    "id": 212,
    "datetime": "10/18/13 19:40",
    "city": "duluth",
    "state": "mn",
    "country": "us",
    "shape": "light",
    "duration (seconds)": 30,
    "duration (hours/min)": "20-30 seconds",
    "comments": "White light moving over Duluth&#44 MN then vanished.  ((NUFORC Note:  Sighting of ISS.  PD))",
    "date posted": "10/23/13",
    "latitude": 46.7833333,
    "longitude": -92.1063889
  },
  {
    "id": 213,
    "datetime": "10/18/13 19:45",
    "city": "clarksville",
    "state": "tn",
    "country": "us",
    "shape": "unknown",
    "duration (seconds)": 45,
    "duration (hours/min)": "45 seconds",
    "comments": "Blue and Red color changing light Strange movements inconsistent with Conventional A/C",
    "date posted": "10/23/13",
    "latitude": 36.5297222,
    "longitude": -87.3594444
  },
  {
    "id": 214,
    "datetime": "10/18/13 20:00",
    "city": "dallas",
    "state": "tx",
    "country": "us",
    "shape": "circle",
    "duration (seconds)": 7200,
    "duration (hours/min)": "2 hours",
    "comments": "Orb of light in far North Dallas.  ((NUFORC Note:  2 hours.  We suspect an advertising light.  PD))",
    "date posted": "10/23/13",
    "latitude": 32.7833333,
    "longitude": -96.8
  },
  {
    "id": 215,
    "datetime": "10/18/13 20:00",
    "city": "dayton/drexel",
    "state": "oh",
    "country": "",
    "shape": "sphere",
    "duration (seconds)": 360,
    "duration (hours/min)": "6 minutes",
    "comments": "White/blue sphere maneuvering around commerical aircraft.",
    "date posted": "10/23/13",
    "latitude": 39.74844,
    "longitude": -84.283398
  },
  {
    "id": 216,
    "datetime": "10/18/13 20:12",
    "city": "washington",
    "state": "pa",
    "country": "us",
    "shape": "formation",
    "duration (seconds)": 30,
    "duration (hours/min)": "30 seconds",
    "comments": "3 red lights in a triangle formation heading North then disappeared&#44 no clouds.",
    "date posted": "10/23/13",
    "latitude": 40.1738889,
    "longitude": -80.2463889
  },
  {
    "id": 217,
    "datetime": "10/18/13 20:15",
    "city": "sellersburg",
    "state": "in",
    "country": "us",
    "shape": "fireball",
    "duration (seconds)": 90,
    "duration (hours/min)": "90 seconds",
    "comments": "Glowing orb traveling fast from horizon at southwest traveling overhead across sky before disappearing in the northwest.",
    "date posted": "10/23/13",
    "latitude": 38.3980556,
    "longitude": -85.755
  },
  {
    "id": 218,
    "datetime": "10/18/13 20:15",
    "city": "washington",
    "state": "pa",
    "country": "us",
    "shape": "triangle",
    "duration (seconds)": 300,
    "duration (hours/min)": "5 minutes",
    "comments": "My Parents arrived home from at trip to the grocery store&#44 and my mother noticed and bright light moving through the sky. As I exited m",
    "date posted": "10/23/13",
    "latitude": 40.1738889,
    "longitude": -80.2463889
  },
  {
    "id": 219,
    "datetime": "10/18/13 21:30",
    "city": "bedford",
    "state": "nh",
    "country": "us",
    "shape": "fireball",
    "duration (seconds)": 600,
    "duration (hours/min)": "10 minutes",
    "comments": "UFO Sighting&#44 Bedford&#44 NH",
    "date posted": "10/23/13",
    "latitude": 42.9463889,
    "longitude": -71.5163889
  },
  {
    "id": 220,
    "datetime": "10/18/13 21:30",
    "city": "oxford",
    "state": "ga",
    "country": "us",
    "shape": "sphere",
    "duration (seconds)": 60,
    "duration (hours/min)": "1 minute",
    "comments": "6 to 10 blinking lights moving at different speeds",
    "date posted": "10/23/13",
    "latitude": 33.6188889,
    "longitude": -83.8675
  },
  {
    "id": 221,
    "datetime": "10/18/13 21:30",
    "city": "sarasota",
    "state": "fl",
    "country": "us",
    "shape": "fireball",
    "duration (seconds)": 180,
    "duration (hours/min)": "2-3 minutes",
    "comments": "Bright red solid lights in sky - two",
    "date posted": "10/23/13",
    "latitude": 27.3361111,
    "longitude": -82.5308333
  },
  {
    "id": 222,
    "datetime": "10/18/13 21:33",
    "city": "lawrenceville",
    "state": "ga",
    "country": "us",
    "shape": "other",
    "duration (seconds)": 180,
    "duration (hours/min)": "3 minutes",
    "comments": "We saw reddish-orange orb-like round lights about the size of softballs in the sky moving at a low altitude in two distinct groups of 5",
    "date posted": "11/11/13",
    "latitude": 33.9561111,
    "longitude": -83.9880556
  },
  {
    "id": 223,
    "datetime": "10/18/13 21:40",
    "city": "sarasota",
    "state": "fl",
    "country": "us",
    "shape": "light",
    "duration (seconds)": 900,
    "duration (hours/min)": "2-15 minutes",
    "comments": "Viewed 5 orange colored lights in sky slightly larger than stars&#44 they were gone 15 minutes later.",
    "date posted": "10/23/13",
    "latitude": 27.3361111,
    "longitude": -82.5308333
  },
  {
    "id": 224,
    "datetime": "10/18/13 21:45",
    "city": "cincinnati",
    "state": "oh",
    "country": "us",
    "shape": "fireball",
    "duration (seconds)": 300,
    "duration (hours/min)": "5 minutes",
    "comments": "the object was a orange firey ball &#44 no sounds",
    "date posted": "10/23/13",
    "latitude": 39.1619444,
    "longitude": -84.4569444
  },
  {
    "id": 225,
    "datetime": "10/18/13 22:34",
    "city": "norwood",
    "state": "oh",
    "country": "us",
    "shape": "fireball",
    "duration (seconds)": 900,
    "duration (hours/min)": "15 minutes",
    "comments": "fireballs in sky making different formations.",
    "date posted": "10/23/13",
    "latitude": 39.1555556,
    "longitude": -84.4597222
  },
  {
    "id": 226,
    "datetime": "10/18/13 22:34",
    "city": "norwood",
    "state": "oh",
    "country": "us",
    "shape": "fireball",
    "duration (seconds)": 900,
    "duration (hours/min)": "15 minutes",
    "comments": "Fireballs in sky making different formations.",
    "date posted": "10/23/13",
    "latitude": 39.1555556,
    "longitude": -84.4597222
  },
  {
    "id": 227,
    "datetime": "10/18/13 22:35",
    "city": "west yarmouth",
    "state": "ma",
    "country": "us",
    "shape": "circle",
    "duration (seconds)": 45,
    "duration (hours/min)": "45 seconds",
    "comments": "Orange flickering light (like flame) moved across sky for about forty five seconds over Cape Cod&#44 then vanished.",
    "date posted": "10/23/13",
    "latitude": 41.7055556,
    "longitude": -70.2291667
  },
  {
    "id": 228,
    "datetime": "10/18/13 23:00",
    "city": "dinosaur colorado",
    "state": "co",
    "country": "",
    "shape": "changing",
    "duration (seconds)": 14400,
    "duration (hours/min)": "4 hours",
    "comments": "Light coming down to the ground (Gold) Lights going east and west Craft able to move horizontal Vertical and from a split second GONE.",
    "date posted": "10/23/13",
    "latitude": 40.243578,
    "longitude": -109.014561
  },
  {
    "id": 229,
    "datetime": "10/18/13 23:30",
    "city": "noblesville",
    "state": "in",
    "country": "us",
    "shape": "formation",
    "duration (seconds)": 900,
    "duration (hours/min)": "15 minutes",
    "comments": "I watched a line of strange lights (15-20) fly from the north horizon&#44 pass almost directly over me&#44 and move south out of sight.",
    "date posted": "10/23/13",
    "latitude": 40.0455556,
    "longitude": -86.0086111
  },
  {
    "id": 230,
    "datetime": "10/19/13 0:00",
    "city": "eau claire",
    "state": "wi",
    "country": "us",
    "shape": "oval",
    "duration (seconds)": 180,
    "duration (hours/min)": "3 minutes",
    "comments": "Four oval orange lights seen near Eau Claire Wi",
    "date posted": "10/23/13",
    "latitude": 44.8113889,
    "longitude": -91.4983333
  },
  {
    "id": 231,
    "datetime": "10/19/13 0:17",
    "city": "arlington",
    "state": "va",
    "country": "us",
    "shape": "circle",
    "duration (seconds)": 240,
    "duration (hours/min)": "4 minutes",
    "comments": "Green flashing orb floating above the Douglas Park neighborhood of Arlington&#44 VA",
    "date posted": "10/23/13",
    "latitude": 38.8902778,
    "longitude": -77.0844444
  },
  {
    "id": 232,
    "datetime": "10/19/13 0:20",
    "city": "virginia beach",
    "state": "va",
    "country": "us",
    "shape": "unknown",
    "duration (seconds)": 5,
    "duration (hours/min)": "5 seconds",
    "comments": "2 fast helicopters chasing themselves or something.",
    "date posted": "10/23/13",
    "latitude": 36.8527778,
    "longitude": -75.9783333
  },
  {
    "id": 233,
    "datetime": "10/19/13 7:30",
    "city": "prescott",
    "state": "az",
    "country": "us",
    "shape": "oval",
    "duration (seconds)": 300,
    "duration (hours/min)": "5 minutes",
    "comments": "Portal to alien planet or Alien base uncovered.",
    "date posted": "10/23/13",
    "latitude": 34.54,
    "longitude": -112.4677778
  },
  {
    "id": 234,
    "datetime": "10/19/13 10:45",
    "city": "murphysboro",
    "state": "il",
    "country": "us",
    "shape": "other",
    "duration (seconds)": 600,
    "duration (hours/min)": "10 minutes",
    "comments": "Orange globes in Southwest sky traveling Northeast toward Benton&#44 Illinois.",
    "date posted": "10/23/13",
    "latitude": 37.7644444,
    "longitude": -89.335
  },
  {
    "id": 235,
    "datetime": "10/19/13 11:00",
    "city": "miramar",
    "state": "fl",
    "country": "us",
    "shape": "light",
    "duration (seconds)": 600,
    "duration (hours/min)": "10 minutes",
    "comments": "10 red orbs moving ne then changing to nw while gaining altitude.",
    "date posted": "10/23/13",
    "latitude": 25.9869444,
    "longitude": -80.2325
  },
  {
    "id": 236,
    "datetime": "10/19/13 11:33",
    "city": "revere",
    "state": "ma",
    "country": "us",
    "shape": "oval",
    "duration (seconds)": 6,
    "duration (hours/min)": "6 seconds",
    "comments": "grey object flew back in forth for 3 seconds then left",
    "date posted": "10/23/13",
    "latitude": 42.4083333,
    "longitude": -71.0125
  },
  {
    "id": 237,
    "datetime": "10/19/13 13:13",
    "city": "los angeles",
    "state": "ca",
    "country": "us",
    "shape": "disk",
    "duration (seconds)": 1560,
    "duration (hours/min)": "26 minutes",
    "comments": "Disk shape object with lights in the sky over LA",
    "date posted": "10/23/13",
    "latitude": 34.0522222,
    "longitude": -118.2427778
  },
  {
    "id": 238,
    "datetime": "10/19/13 13:40",
    "city": "sierra vista",
    "state": "az",
    "country": "us",
    "shape": "circle",
    "duration (seconds)": 20,
    "duration (hours/min)": "20 seconds",
    "comments": "Noticed a bright white circle (reflected sunlight) appearing from the NE on a SE trajectory. Alt. lower than the ISS when it appear.",
    "date posted": "10/23/13",
    "latitude": 31.5544444,
    "longitude": -110.3030556
  },
  {
    "id": 239,
    "datetime": "10/19/13 18:00",
    "city": "brownsville",
    "state": "or",
    "country": "us",
    "shape": "disk",
    "duration (seconds)": 360,
    "duration (hours/min)": "4-6 minutes",
    "comments": "19-Oct-13 Brownsville Oregon on Kirk Ave. in a large clearcut.",
    "date posted": "1/24/14",
    "latitude": 44.3936111,
    "longitude": -122.9836111
  },
  {
    "id": 240,
    "datetime": "10/19/13 18:30",
    "city": "san pedro sul (honduras)",
    "state": "",
    "country": "",
    "shape": "fireball",
    "duration (seconds)": 900,
    "duration (hours/min)": "15 minutes",
    "comments": "We were in a park in La Tara neighborhood in San Pedro Sula when me and my family (and everyone else we told to look at the sky) and we",
    "date posted": "10/23/13",
    "latitude": 15.5,
    "longitude": -88.033333
  },
  {
    "id": 241,
    "datetime": "10/19/13 18:45",
    "city": "lafayette",
    "state": "in",
    "country": "us",
    "shape": "light",
    "duration (seconds)": 300,
    "duration (hours/min)": "5+ minutes",
    "comments": "A long string of nearly white (towards yellow) lights moving along a line from south to north.",
    "date posted": "2/27/14",
    "latitude": 40.4166667,
    "longitude": -86.8752778
  },
  {
    "id": 242,
    "datetime": "10/19/13 19:05",
    "city": "lowell",
    "state": "ma",
    "country": "us",
    "shape": "light",
    "duration (seconds)": 120,
    "duration (hours/min)": "several minutes",
    "comments": "single bright light in west sky above Lowell looped&#44 dived &#44 soared amd hovered&#44 fading thwn shining",
    "date posted": "10/23/13",
    "latitude": 42.6333333,
    "longitude": -71.3166667
  },
  {
    "id": 243,
    "datetime": "10/19/13 19:30",
    "city": "winslow",
    "state": "az",
    "country": "us",
    "shape": "fireball",
    "duration (seconds)": 10,
    "duration (hours/min)": "10 seconds",
    "comments": "Fireball traveled 10 seconds high above the horizon then abruptly disappeared.",
    "date posted": "10/23/13",
    "latitude": 35.0241667,
    "longitude": -110.6966667
  },
  {
    "id": 244,
    "datetime": "10/19/13 20:03",
    "city": "fairdale",
    "state": "ky",
    "country": "us",
    "shape": "light",
    "duration (seconds)": 30,
    "duration (hours/min)": "30 seconds",
    "comments": "very bright white light heading from north to south",
    "date posted": "10/23/13",
    "latitude": 38.105,
    "longitude": -85.7588889
  },
  {
    "id": 245,
    "datetime": "10/19/13 20:05",
    "city": "riverview (canada)",
    "state": "nb",
    "country": "ca",
    "shape": "light",
    "duration (seconds)": 1200,
    "duration (hours/min)": "15-20 minutes",
    "comments": "Slow-moving red/orange lights.",
    "date posted": "10/23/13",
    "latitude": 46.05,
    "longitude": -64.81
  },